fips,health rank,population,pop_area_est,density,pop_ranked,pop_scaled,density_ranked,density_scaled, TOT_MALE,TOT_FEMALE,%  TOT_MALE,% TOT_FEMALE,maleness_ranked,maleness_scaled,% over 70,Rank over 70,scale over 70,% Age 0 to 29 years,% Age 30 to 39,% Age 40 to 49 years,% Age 50 to 59 years,% Age 60 to 69 years,% Age 70 to 79,% Age 80 to 85+,"Poverty, total","Poverty, %",Poverty_ranked,Poverty_scaled,Median_Income,Income_ranked,Income_scaled,% using transportation,Apr11_Cases,Apr11_Deaths,Apr11_cases_rank,Apr11_cases_scale,Apr11_deaths_rank,Apr11_deaths_scale,County ,State,Apr18_Cases,Apri18_Deaths,Apr18_cases_ranked,Apr_18_cases_scaled,Apr18_deaths_ranked,Apr_18_deaths_scaled,lat,lng
1001,2,57046.0,1512.03,37.73,2216.0,8.0,2191.0,8.0,26995.0,28606.0,48.55128505,51.44871495,475.0,2.0,10.90627866,763.0,3.0,38.31226057,12.74977069,13.63644539,13.91701588,10.47822881,7.284041654,3.62223701,"7,587",13.8,1462,5,"59,338",2380,8,,19.0,1.0,1577.0,7.0,1619.0,7.0,Autauga,Alabama,25.0,2.0,1621.0,6.0,1910.0,8.0,32.45322,-86.72385
1003,3,207694.0,4077.05,50.94,2783.0,9.0,2367.0,8.0,105657.0,112365.0,48.46162314,51.53837686,430.0,2.0,13.89951473,1967.0,7.0,34.514406799999996,11.56442928,12.53910156,13.75365789,13.72888975,9.602700645,4.296814083,"21,069",9.8,533,2,"57,588",2262,8,,66.0,1.0,2077.0,8.0,1619.0,7.0,Baldwin,Alabama,109.0,2.0,2226.0,9.0,1910.0,8.0,30.863190000000003,-87.73904
1005,0,25278.0,1821.81,13.88,1511.0,5.0,1287.0,5.0,13133.0,11748.0,52.78324826,47.21675174,2874.0,10.0,13.23097946,1677.0,6.0,36.01141433,12.86523854,12.35480889,13.17471163,12.36284715,9.018930107000001,4.212049355,"6,788",30.9,3039,10,"34,382",124,1,,10.0,0.0,1204.0,5.0,1.0,1.0,Barbour,Alabama,18.0,0.0,1431.0,6.0,1.0,1.0,31.852090000000004,-85.42935
1007,1,22859.0,1415.86,16.14,1432.0,5.0,1437.0,5.0,11921.0,10479.0,53.21875,46.78125,2908.0,10.0,11.19642857,851.0,3.0,36.07589286,13.89732143,13.5625,13.90625,11.36160714,7.691964286,3.504464286,"4,400",21.8,2696,9,"46,064",1033,4,,13.0,0.0,1369.0,6.0,1.0,1.0,Bibb,Alabama,26.0,0.0,1643.0,7.0,1.0,1.0,32.91192,-87.26985
1009,2,45030.0,1311.39,34.34,2051.0,7.0,2122.0,7.0,28500.0,29340.0,49.27385892,50.72614108,1070.0,4.0,12.56224066,1428.0,5.0,37.01071923,11.90179806,12.92185339,13.5615491,12.04183956,8.525242047,4.036998617,"7,527",13.2,1328,5,"50,412",1542,5,,12.0,0.0,1319.0,6.0,1.0,1.0,Blount,Alabama,20.0,0.0,1487.0,6.0,1.0,1.0,33.90169,-86.51787
1011,0,10341.0,1835.66,5.63,738.0,3.0,640.0,3.0,5527.0,4611.0,54.51765634,45.48234366,2985.0,10.0,11.04754389,801.0,3.0,36.72321957,14.26316828,12.56658118,13.37541921,12.02406786,6.934306568999999,4.113237325,"3,610",42.5,3101,10,"29,267",24,1,,4.0,0.0,662.0,3.0,1.0,1.0,Bullock,Alabama,9.0,0.0,1045.0,4.0,1.0,1.0,32.1779,-85.93363000000001
1013,0,19770.0,1979.32,9.99,1290.0,5.0,1014.0,4.0,9165.0,10515.0,46.57012195,53.42987805,29.0,1.0,13.98882114,2002.0,7.0,36.06707317,11.875,11.77845528,12.65752033,13.63313008,8.43495935,5.553861789,"4,731",24.5,2866,10,"37,365",258,1,,6.0,0.0,888.0,4.0,1.0,1.0,Butler,Alabama,13.0,0.0,1242.0,5.0,1.0,1.0,31.86642,-86.85983
1015,1,111533.0,1095.35,101.82,2552.0,9.0,2663.0,9.0,54914.0,59363.0,48.05341407,51.94658593,223.0,1.0,11.7941493,1079.0,4.0,37.83876021,12.13280013,12.01204092,13.41039754,12.8118519,7.857224112999999,3.9369251910000003,"21,719",19.5,2465,8,"45,400",965,4,,57.0,0.0,2037.0,8.0,1.0,1.0,Calhoun,Alabama,66.0,2.0,2053.0,8.0,1910.0,8.0,33.65146,-85.8788
1017,1,35074.0,1130.1,31.04,1802.0,6.0,2044.0,7.0,16093.0,17522.0,47.87446081,52.12553919,178.0,1.0,13.35415737,1732.0,6.0,35.87981556,11.10813625,12.13148892,14.16331995,13.36308196,8.84129109,4.51286628,"6,181",18.7,2371,8,"39,917",456,2,,184.0,8.0,2340.0,9.0,2383.0,10.0,Chambers,Alabama,240.0,11.0,2424.0,9.0,2451.0,10.0,32.75379,-85.18444000000001
1019,2,28103.0,1296.41,21.68,1618.0,6.0,1728.0,6.0,12896.0,13136.0,49.53902889,50.46097111,1396.0,5.0,15.81899201,2538.0,9.0,32.21803934,9.618930547,12.3079287,14.87784266,15.15826675,10.89044253,4.928549478,"4,180",16.3,2015,7,"42,132",626,3,,7.0,0.0,1000.0,4.0,1.0,1.0,Cherokee,Alabama,12.0,0.0,1188.0,5.0,1.0,1.0,34.240590000000005,-85.60696999999999
1021,1,35064.0,1271.42,27.58,1800.0,6.0,1942.0,7.0,21668.0,22485.0,49.07480805,50.92519195,866.0,3.0,11.18383802,845.0,3.0,38.58401468,11.85196929,12.80773673,13.43510067,12.13734061,7.551015786000001,3.632822232,"7,542",17.3,2173,7,"47,547",1211,4,,30.0,0.0,1790.0,7.0,1.0,1.0,Chilton,Alabama,39.0,0.0,1833.0,7.0,1.0,1.0,32.80704,-86.67285
1023,1,12712.0,2168.06,5.86,899.0,3.0,661.0,3.0,6070.0,6771.0,47.27046179999999,52.7295382,79.0,1.0,16.26041585,2616.0,9.0,32.82454637,10.03815902,11.51000701,15.16237053,14.20450121,10.67673857,5.583677284,"2,806",22.1,2716,9,"39,907",455,2,,9.0,0.0,1147.0,5.0,1.0,1.0,Choctaw,Alabama,14.0,0.0,1289.0,5.0,1.0,1.0,32.10204,-88.25861
1025,1,25689.0,3099.97,8.29,1525.0,5.0,867.0,3.0,11328.0,12592.0,47.35785953,52.64214047,93.0,1.0,14.28511706,2105.0,7.0,36.20401338,10.68979933,12.00250836,14.29347826,12.52508361,9.280936455,5.004180602,"5,381",22.8,2760,9,"40,741",518,2,,15.0,0.0,1460.0,6.0,1.0,1.0,Clarke,Alabama,24.0,0.0,1604.0,6.0,1.0,1.0,31.78537,-87.64954
1027,1,12391.0,1198.63,10.34,873.0,3.0,1043.0,4.0,6492.0,6783.0,48.903954799999994,51.096045200000006,722.0,3.0,14.30508475,2114.0,7.0,34.10169492,10.96045198,12.08286252,14.99811676,13.55178908,9.145009416,5.16007533,"2,285",17.6,2219,8,"39,201",393,2,,12.0,0.0,1319.0,6.0,1.0,1.0,Clay,Alabama,17.0,0.0,1397.0,6.0,1.0,1.0,33.163340000000005,-86.15567
1029,1,14500.0,1096.82,13.22,1009.0,4.0,1248.0,5.0,7421.0,7566.0,49.51624741,50.48375259,1354.0,5.0,13.39160606,1749.0,6.0,36.1713485,11.10962834,12.87782745,14.098885699999999,12.35070394,9.061186362,4.330419697,"2,356",16.0,1956,7,"46,495",1082,4,,12.0,0.0,1319.0,6.0,1.0,1.0,Cleburne,Alabama,12.0,0.0,1188.0,5.0,1.0,1.0,33.78757,-85.46555
1031,3,54456.0,1815.66,29.99,2196.0,8.0,2014.0,7.0,25521.0,26388.0,49.1648847,50.8351153,951.0,4.0,11.67812903,1025.0,4.0,38.03771986,12.68758789,13.28478684,12.83399796,11.47777842,7.634514246,4.043614787,"7,053",13.8,1462,5,"55,122",2043,7,,20.0,0.0,1599.0,7.0,1.0,1.0,Coffee,Alabama,56.0,0.0,1996.0,8.0,1.0,1.0,31.602459999999997,-85.6815
1033,2,52958.0,1404.59,37.7,2180.0,8.0,2190.0,8.0,26259.0,28503.0,47.951134,52.048866,199.0,1.0,13.690150099999999,1861.0,6.0,35.38402542,11.73076221,12.17267448,13.71023703,13.31215076,8.851028085,4.8391220189999995,"7,459",13.8,1462,5,"49,055",1398,5,,8.0,1.0,1074.0,5.0,1619.0,7.0,Colbert,Alabama,15.0,1.0,1325.0,5.0,1519.0,6.0,34.73885,-88.01897
1035,0,12519.0,1915.41,6.54,883.0,3.0,717.0,3.0,5881.0,6396.0,47.90258206,52.09741794,185.0,1.0,16.21731693,2604.0,9.0,34.2999104,10.26309359,10.87399202,14.2868779,14.05880916,10.65406858,5.563248351,"2,979",24.4,2861,10,"32,613",64,1,,3.0,0.0,483.0,2.0,1.0,1.0,Conecuh,Alabama,10.0,0.0,1096.0,5.0,1.0,1.0,31.47366,-86.94931
1037,0,11075.0,1715.12,6.46,783.0,3.0,709.0,3.0,5399.0,5316.0,50.38730751,49.61269249,2216.0,8.0,15.82827811,2543.0,9.0,29.08072795,9.594027065,12.86980868,16.33224452,16.29491367,10.61129258,5.216985534,"1,973",18.9,2400,8,"42,423",651,3,,11.0,0.0,1268.0,5.0,1.0,1.0,Coosa,Alabama,22.0,1.0,1548.0,6.0,1519.0,6.0,33.08977,-86.06138
1039,1,38464.0,3128.18,12.3,1901.0,7.0,1186.0,4.0,17896.0,19090.0,48.38587574,51.61412426,383.0,2.0,14.908343700000001,2299.0,8.0,35.20791651,11.06905316,11.29616612,13.899854000000001,13.61866652,9.484669875,5.423673823,"7,239",19.9,2511,9,"40,203",475,2,,11.0,0.0,1268.0,5.0,1.0,1.0,Covington,Alabama,21.0,1.0,1518.0,6.0,1519.0,6.0,31.499159999999996,-86.38884
1041,1,13390.0,1421.34,9.42,940.0,4.0,964.0,4.0,6674.0,7150.0,48.27835648,51.72164352,326.0,2.0,12.8978588,1547.0,5.0,36.85619213,11.26302083,11.9212963,13.83825231,13.22337963,8.543113426,4.35474537,"2,661",19.5,2465,8,"39,057",382,2,,2.0,0.0,291.0,2.0,1.0,1.0,Crenshaw,Alabama,6.0,0.0,808.0,3.0,1.0,1.0,31.58357,-86.29694
1043,2,80685.0,1934.04,41.72,2412.0,8.0,2261.0,8.0,41245.0,42197.0,49.42954387,50.57045613,1251.0,5.0,12.67227535,1469.0,5.0,37.05687783,11.89568802,12.38584885,13.46324393,12.52606601,8.653915293999999,4.018360058,"11,925",14.5,1628,6,"45,796",1007,4,,31.0,1.0,1807.0,7.0,1619.0,7.0,Cullman,Alabama,42.0,0.0,1867.0,7.0,1.0,1.0,34.29851,-86.63523
1045,2,41368.0,986.38,41.94,1963.0,7.0,2264.0,8.0,24023.0,24933.0,49.070594,50.929406,863.0,3.0,11.57570063,995.0,4.0,39.45788055,12.89321023,11.61859629,12.70937168,11.74524062,7.664024839,3.9116757910000004,"7,743",16.2,1999,7,"45,309",953,4,,6.0,0.0,888.0,4.0,1.0,1.0,Dale,Alabama,17.0,0.0,1397.0,6.0,1.0,1.0,31.252809999999997,-85.73273
1047,0,41575.0,2931.3,14.18,1968.0,7.0,1312.0,5.0,17685.0,20625.0,46.16288175,53.83711825,18.0,1.0,12.06473506,1197.0,4.0,38.8018794,11.21900287,10.8431219,13.7274863,13.34377447,7.98486035,4.079874706,"11,841",31.4,3044,10,"34,035",111,1,,10.0,0.0,1204.0,5.0,1.0,1.0,Dallas,Alabama,22.0,2.0,1548.0,6.0,1910.0,8.0,32.47679,-87.05709
1049,1,62688.0,1663.7,37.68,2274.0,8.0,2189.0,8.0,35428.0,35957.0,49.62947398,50.37052602,1499.0,5.0,11.61588569,1003.0,4.0,38.57673181,11.51362331,13.08958465,13.16382994,12.04034461,7.878405827999999,3.737479863,"14,975",21.3,2651,9,"39,491",418,2,,21.0,0.0,1621.0,7.0,1.0,1.0,DeKalb,Alabama,40.0,2.0,1846.0,7.0,1910.0,8.0,34.30187,-86.03995
1051,2,87170.0,1720.01,50.68,2444.0,8.0,2363.0,8.0,39585.0,42302.0,48.34100651,51.65899349,364.0,2.0,10.12004348,528.0,2.0,38.02435063,13.44169404,13.43680926,13.67982708,11.29727551,7.031641164,3.0884023110000003,"8,559",11.2,846,3,"60,367",2457,8,,30.0,0.0,1790.0,7.0,1.0,1.0,Elmore,Alabama,58.0,1.0,2007.0,8.0,1519.0,6.0,32.48819,-86.31931
1053,0,37781.0,2204.65,17.14,1882.0,7.0,1486.0,5.0,18628.0,18120.0,50.69119408,49.30880592,2406.0,8.0,12.39523239,1354.0,5.0,37.30815282,12.53401546,12.77620551,13.23337324,11.75302057,8.310656362000001,4.084576031,"8,022",23.6,2817,10,"38,418",340,2,,8.0,0.0,1074.0,5.0,1.0,1.0,Escambia,Alabama,12.0,0.0,1188.0,5.0,1.0,1.0,31.14048,-87.07404
1055,1,118744.0,2354.07,50.44,2580.0,9.0,2360.0,8.0,49653.0,52848.0,48.44147862,51.55852138,417.0,2.0,12.74426591,1499.0,5.0,36.20159803,11.56281402,12.98231237,13.39108887,13.117920800000002,8.596989297999999,4.147276612,"17,509",17.5,2204,8,"44,903",913,3,,74.0,7.0,2122.0,9.0,2352.0,9.0,Etowah,Alabama,93.0,7.0,2176.0,9.0,2358.0,9.0,34.047959999999996,-85.92463000000001
1057,1,16209.0,1766.59,9.18,1113.0,4.0,940.0,4.0,8023.0,8410.0,48.82249133,51.17750867,650.0,3.0,14.49522303,2174.0,7.0,35.21572446,10.81360677,12.13412037,13.60068156,13.74064383,9.706079231,4.789143796,"3,801",23.5,2809,10,"39,254",397,2,,3.0,0.0,483.0,2.0,1.0,1.0,Fayette,Alabama,4.0,0.0,572.0,3.0,1.0,1.0,33.71588,-87.67889
1059,1,32919.0,1772.88,18.57,1749.0,6.0,1571.0,6.0,15823.0,15540.0,50.45116857,49.54883143,2261.0,8.0,11.65385964,1017.0,4.0,39.2755795,11.65067117,13.2034563,12.88460925,11.33182412,7.617256002,4.036603641,"5,939",19.2,2435,8,"39,388",405,2,,8.0,0.0,1074.0,5.0,1.0,1.0,Franklin,Alabama,17.0,0.0,1397.0,6.0,1.0,1.0,34.35605,-87.95000999999999
1061,1,26608.0,1461.96,18.2,1561.0,6.0,1551.0,6.0,12846.0,13468.0,48.81811963,51.18188037,647.0,3.0,13.93174736,1982.0,7.0,34.87117124,11.22216311,12.347039599999999,13.78353728,13.84434142,9.17382382,4.757923539,"5,537",21.3,2651,9,"37,823",294,1,,,,,,,,Geneva,Alabama,4.0,0.0,572.0,3.0,1.0,1.0,31.17861,-85.79394
1063,0,7950.0,1446.17,5.5,558.0,2.0,629.0,3.0,3887.0,4346.0,47.21243775,52.78756225,71.0,1.0,14.53905016,2198.0,8.0,36.28082109,10.51864448,9.692700109,13.33657233,15.63221183,9.109680554,5.42936961,"2,459",30.1,3026,10,"28,524",16,1,,14.0,0.0,1418.0,6.0,1.0,1.0,Greene,Alabama,29.0,0.0,1697.0,7.0,1.0,1.0,32.75294,-88.01125
1065,0,16963.0,1660.63,10.21,1157.0,4.0,1035.0,4.0,7008.0,7718.0,47.58929784,52.41070216,129.0,1.0,12.94309385,1569.0,6.0,38.28602472,11.02132283,10.8719272,13.73081624,13.14681516,8.15564308,4.787450767,"3,705",25.6,2918,10,"34,724",129,1,,11.0,0.0,1268.0,5.0,1.0,1.0,Hale,Alabama,23.0,1.0,1574.0,6.0,1519.0,6.0,32.85374,-87.73861
1067,2,17030.0,1188.94,14.32,1160.0,4.0,1320.0,5.0,8300.0,8909.0,48.23057702,51.76942298,303.0,1.0,15.22459178,2387.0,8.0,33.13963624,11.12208728,12.53413911,13.05712127,14.92242431,10.07612296,5.148468824,"3,037",17.9,2258,8,"46,027",1027,4,,10.0,0.0,1204.0,5.0,1.0,1.0,Henry,Alabama,17.0,0.0,1397.0,6.0,1.0,1.0,31.602959999999996,-85.2163
1069,2,107497.0,1634.53,65.77,2540.0,9.0,2502.0,9.0,50286.0,54436.0,48.01856343,51.98143657,211.0,1.0,12.13021142,1229.0,4.0,37.41811654,12.70220202,12.39090163,13.29138099,12.06718741,7.981130994,4.149080422,"17,032",16.5,2045,7,"47,993",1263,5,,37.0,1.0,1889.0,8.0,1619.0,7.0,Houston,Alabama,63.0,2.0,2037.0,8.0,1910.0,8.0,31.14367,-85.40236
1071,1,54475.0,2733.92,19.93,2197.0,8.0,1646.0,6.0,25390.0,26346.0,49.07607855,50.92392145,868.0,3.0,13.73704964,1889.0,7.0,34.50981908,10.89376836,13.00061852,13.92647286,13.93227153,9.389979898,4.347069739,"10,046",19.7,2488,9,"41,929",608,2,,22.0,2.0,1652.0,7.0,1990.0,8.0,Jackson,Alabama,38.0,2.0,1824.0,7.0,1910.0,8.0,34.9501,-85.75855
1073,2,662401.0,2765.0,239.57,3000.0,10.0,2900.0,10.0,311591.0,347709.0,47.26088275,52.73911725,77.0,1.0,10.39799788,603.0,2.0,39.21492492,13.58865463,12.167602,12.70574852,11.92507205,6.522675565,3.8753223119999998,"103,604",16.1,1978,7,"55,013",2037,7,,579.0,15.0,2499.0,10.0,2466.0,10.0,Jefferson,Alabama,673.0,25.0,2583.0,10.0,2569.0,10.0,33.59515,-87.00089
1075,2,13140.0,1440.86,9.12,922.0,3.0,938.0,4.0,6767.0,7077.0,48.88038139,51.11961861,699.0,3.0,15.53019358,2472.0,8.0,33.99306559,10.62554175,12.73475874,13.74602716,13.37041318,10.0982375,5.431956082,"2,374",17.4,2191,8,"40,936",531,2,,7.0,0.0,1000.0,4.0,1.0,1.0,Lamar,Alabama,8.0,0.0,977.0,4.0,1.0,1.0,33.95519,-88.01906
1077,2,93174.0,1712.44,54.41,2475.0,8.0,2411.0,8.0,44327.0,48060.0,47.97969411,52.02030589,204.0,1.0,13.87316397,1954.0,7.0,37.32559776,11.05566801,11.42260275,13.18259062,13.14037689,9.103012329,4.770151645,"12,645",14.0,1519,5,"48,707",1352,5,,21.0,4.0,1621.0,7.0,2247.0,9.0,Lauderdale,Alabama,23.0,4.0,1574.0,6.0,2190.0,9.0,34.95098,-87.24209
1079,1,34703.0,1498.37,23.16,1795.0,6.0,1786.0,6.0,16047.0,16910.0,48.69071821,51.30928179,556.0,2.0,12.71353582,1486.0,5.0,35.50383833,11.06290014,12.57699427,15.21376339,12.92896805,8.890372303,3.823163516,"6,297",19.3,2448,8,"43,909",808,3,,8.0,0.0,1074.0,5.0,1.0,1.0,Lawrence,Alabama,9.0,0.0,1045.0,4.0,1.0,1.0,34.64788,-87.30611999999999
1081,2,157181.0,2042.74,76.95,2693.0,9.0,2560.0,9.0,80639.0,83302.0,49.18781757,50.81218243,979.0,4.0,7.704601045,112.0,1.0,47.06571266,12.7655681,11.81217633,11.43826133,9.213680531,5.318376733,2.386224312,"30,075",19.0,2412,8,"48,937",1386,5,,221.0,8.0,2377.0,10.0,2383.0,10.0,Lee,Alabama,306.0,14.0,2468.0,10.0,2493.0,10.0,32.69173,-85.3972
1083,2,90939.0,1611.4,56.43,2458.0,8.0,2433.0,8.0,48156.0,48018.0,50.07174496,49.92825504,1986.0,7.0,10.15139227,536.0,2.0,36.5233847,13.52132593,13.92996028,14.705637699999999,11.16829912,6.935346351000001,3.2160459169999998,"10,633",11.4,897,3,"64,863",2672,9,,36.0,0.0,1880.0,8.0,1.0,1.0,Limestone,Alabama,40.0,0.0,1846.0,7.0,1.0,1.0,34.767109999999995,-87.08565
1085,0,9271.0,1450.39,6.39,655.0,3.0,703.0,3.0,4670.0,5304.0,46.82173651,53.17826349,45.0,1.0,13.04391418,1612.0,6.0,37.35712853,10.96851815,10.8582314,14.62803289,13.14417485,8.682574694,4.361339483,"2,474",25.1,2894,10,"33,973",102,1,,14.0,0.0,1418.0,6.0,1.0,1.0,Lowndes,Alabama,27.0,0.0,1660.0,7.0,1.0,1.0,31.994290000000003,-86.56931
1087,0,18676.0,1100.8,16.97,1238.0,4.0,1479.0,5.0,8383.0,10056.0,45.46341993,54.53658007,5.0,1.0,13.30332448,1712.0,6.0,41.42307067,9.062313574,9.65887521,12.77184229,13.78057378,8.758609469,4.544715006000001,"5,031",30.2,3027,10,"32,495",62,1,,12.0,1.0,1319.0,6.0,1619.0,7.0,Macon,Alabama,24.0,2.0,1604.0,6.0,1910.0,8.0,32.24878,-85.74358000000001
1089,2,359189.0,2200.36,163.24,2906.0,10.0,2820.0,10.0,179074.0,187445.0,48.858040100000004,51.141959899999996,680.0,3.0,10.20274529,553.0,2.0,38.45885206,13.19495033,12.12679288,14.86280384,11.1538556,6.58929005,3.6134552369999997,"42,667",11.9,1002,4,"63,755",2633,9,,186.0,3.0,2343.0,9.0,2157.0,9.0,Madison,Alabama,197.0,4.0,2386.0,9.0,2190.0,9.0,34.72143,-86.48335
1091,0,18704.0,2134.24,8.76,1241.0,5.0,906.0,3.0,8933.0,10133.0,46.85303682,53.14696318,50.0,1.0,13.6840449,1856.0,6.0,37.11318578,10.88324767,11.85356131,13.48473723,12.98122312,8.617434176,5.066610721,"4,499",24.0,2845,10,"37,733",287,1,,19.0,1.0,1577.0,7.0,1619.0,7.0,Marengo,Alabama,25.0,1.0,1621.0,6.0,1519.0,6.0,32.42337,-87.9152
1093,1,29134.0,1820.98,16.0,1652.0,6.0,1427.0,5.0,14686.0,15077.0,49.34314417,50.65685583,1146.0,4.0,15.06232571,2338.0,8.0,34.23714007,10.99687531,12.45842153,14.36347142,12.88176595,9.767160568,5.295165138,"5,844",20.2,2541,9,"37,887",300,1,,42.0,3.0,1942.0,8.0,2157.0,9.0,Marion,Alabama,60.0,5.0,2020.0,8.0,2261.0,9.0,34.22419,-87.75005
1095,1,100751.0,1606.71,62.71,2512.0,9.0,2481.0,9.0,47502.0,48607.0,49.42513188,50.57486812,1243.0,4.0,11.74499787,1055.0,4.0,39.42086589,11.8771395,12.22570207,13.12884329,11.60245138,7.933700278,3.8112975889999996,"17,341",18.3,2319,8,"46,233",1049,4,,84.0,2.0,2168.0,9.0,1990.0,8.0,Marshall,Alabama,139.0,4.0,2300.0,9.0,2190.0,9.0,34.32333,-86.50143
1097,1,415359.0,3216.83,129.12,2932.0,10.0,2737.0,9.0,197077.0,216680.0,47.63109748,52.36890252,136.0,1.0,10.79715872,732.0,3.0,39.72283248,12.82008522,11.74650822,13.01899424,11.89442112,7.174500975,3.6226577439999996,"84,539",20.8,2616,9,"43,598",775,3,,429.0,15.0,2472.0,10.0,2466.0,10.0,Mobile,Alabama,638.0,25.0,2581.0,10.0,2569.0,10.0,30.94264,-88.01644
1099,0,20465.0,2372.97,8.62,1316.0,5.0,899.0,3.0,10005.0,11062.0,47.49133716,52.50866284,121.0,1.0,13.97446243,1999.0,7.0,35.92348222,10.16281388,11.8953814,14.33046945,13.71339061,8.985617316,4.988845113,"4,560",21.9,2701,9,"39,556",430,2,,6.0,1.0,888.0,4.0,1619.0,7.0,Monroe,Alabama,8.0,0.0,977.0,4.0,1.0,1.0,31.75818,-87.1847
1101,1,227942.0,2098.11,108.64,2813.0,10.0,2681.0,9.0,106522.0,119241.0,47.18310795,52.81689205,70.0,1.0,9.945828148,484.0,2.0,40.90439975,13.42248287,11.95280006,12.42719135,11.34729783,6.352236638,3.59359151,"43,567",20.1,2533,9,"49,640",1460,5,,106.0,4.0,2226.0,9.0,2247.0,9.0,Montgomery,Alabama,217.0,3.0,2401.0,9.0,2098.0,8.0,32.29372,-85.98264
1103,2,116971.0,1636.24,71.49,2575.0,9.0,2525.0,9.0,58682.0,60407.0,49.27575175,50.72424825,1071.0,4.0,11.86087716,1110.0,4.0,37.09662521,12.00698637,12.599820300000001,14.23809084,12.19760011,7.873103308999999,3.98777385,"15,419",13.2,1328,5,"52,797",1826,6,,37.0,0.0,1889.0,8.0,1.0,1.0,Morgan,Alabama,45.0,0.0,1903.0,8.0,1.0,1.0,34.60907,-87.01333000000001
1105,0,8596.0,1314.44,6.54,605.0,2.0,717.0,3.0,4281.0,4859.0,46.8380744,53.161925600000004,48.0,1.0,13.97155361,1996.0,7.0,41.89277899,9.814004376,10.50328228,11.44420131,12.37417943,8.796498906,5.175054705,"2,943",35.3,3080,10,"26,814",5,1,,4.0,0.0,662.0,3.0,1.0,1.0,Perry,Alabama,9.0,0.0,1045.0,4.0,1.0,1.0,32.693509999999996,-87.28014
1107,2,20491.0,2359.42,8.68,1318.0,5.0,901.0,3.0,9948.0,9990.0,49.89467349,50.10532651,1802.0,6.0,12.95014545,1571.0,6.0,34.95837095,12.65924366,11.89186478,14.66044739,12.87992778,8.380981041,4.56916441,"4,177",23.1,2785,9,"37,586",274,1,,21.0,0.0,1621.0,7.0,1.0,1.0,Pickens,Alabama,33.0,0.0,1757.0,7.0,1.0,1.0,33.07371,-88.19359
1109,1,36262.0,2277.22,15.92,1840.0,6.0,1422.0,5.0,16098.0,17240.0,48.28723979,51.71276021,331.0,2.0,10.45353651,618.0,2.0,49.09712639999999,10.00659908,9.832623433,10.56152139,10.0485932,6.836042954,3.6174935510000004,"7,315",23.6,2817,10,"37,259",247,1,,18.0,0.0,1550.0,6.0,1.0,1.0,Pike,Alabama,34.0,0.0,1772.0,7.0,1.0,1.0,31.88607,-85.72077
1111,1,22974.0,1556.83,14.76,1439.0,5.0,1351.0,5.0,11056.0,11669.0,48.65126513,51.34873487,527.0,2.0,14.00220022,2010.0,7.0,35.85918592,10.19581958,11.7579758,14.4290429,13.75577558,9.280528053,4.7216721669999995,"4,375",19.7,2488,9,"40,546",503,2,,27.0,4.0,1745.0,7.0,2247.0,9.0,Randolph,Alabama,51.0,3.0,1957.0,8.0,2098.0,8.0,33.466229999999996,-85.35928
1113,0,58281.0,1684.64,34.6,2233.0,8.0,2130.0,7.0,27745.0,30036.0,48.01751441,51.98248559,210.0,1.0,9.465049065,392.0,2.0,40.69849951,13.502708499999999,12.17009051,13.205032800000001,10.95861962,6.327339437000001,3.137709628,"12,384",21.7,2688,9,"39,104",385,2,,22.0,0.0,1652.0,7.0,1.0,1.0,Russell,Alabama,42.0,0.0,1867.0,7.0,1.0,1.0,32.2766,-84.99898
1115,2,80218.0,1615.94,49.64,2407.0,8.0,2354.0,8.0,44027.0,44663.0,49.64144774,50.35855226,1516.0,5.0,11.05085128,802.0,3.0,36.43590033,13.13789604,13.35889052,13.9406923,12.07576953,7.680685534,3.370165746,"10,432",12.0,1023,4,"57,284",2238,8,,39.0,0.0,1919.0,8.0,1.0,1.0,St. Clair,Alabama,53.0,0.0,1974.0,8.0,1.0,1.0,33.60277,-86.49615
1117,2,220555.0,2436.65,90.52,2805.0,10.0,2625.0,9.0,104270.0,111437.0,48.33871872,51.66128128,362.0,2.0,10.00941091,505.0,2.0,37.63994678,13.05706352,14.21047996,13.58648537,11.49661346,6.767049748,3.2423611660000002,"16,916",8.0,227,1,"75,663",2912,10,,196.0,5.0,2357.0,10.0,2293.0,9.0,Shelby,Alabama,257.0,7.0,2431.0,9.0,2358.0,9.0,33.21591,-86.79717
1119,0,13067.0,2190.14,5.97,920.0,3.0,669.0,3.0,5802.0,6889.0,45.71743755,54.28256245,7.0,1.0,11.94547317,1145.0,4.0,45.11070838,8.226302104,9.424001261,12.13458356,13.15893153,6.93404775,5.01142542,"4,076",34.7,3076,10,"27,859",10,1,,19.0,0.0,1577.0,7.0,1.0,1.0,Sumter,Alabama,35.0,0.0,1786.0,7.0,1.0,1.0,32.798590000000004,-88.30287
1121,1,77288.0,2320.07,33.31,2391.0,8.0,2103.0,7.0,38580.0,41248.0,48.32890715,51.67109285,352.0,2.0,12.024602900000001,1177.0,4.0,36.41829934,12.0233502,12.68978303,13.78463697,13.05932755,8.226436839,3.798166057,"14,825",19.3,2448,8,"41,630",583,2,,32.0,0.0,1828.0,7.0,1.0,1.0,Talladega,Alabama,44.0,1.0,1896.0,7.0,1519.0,6.0,33.35989,-86.26918
1123,1,35562.0,1754.76,20.27,1821.0,6.0,1664.0,6.0,19632.0,20865.0,48.47766501,51.52233499,440.0,2.0,14.53440996,2196.0,8.0,34.59268588,10.17112379,11.46257747,14.30476332,14.93443959,9.97357829,4.5608316669999995,"7,839",19.7,2488,9,"42,205",636,3,,62.0,4.0,2062.0,8.0,2247.0,9.0,Tallapoosa,Alabama,180.0,11.0,2365.0,9.0,2451.0,10.0,32.91644,-85.9368
1125,2,210247.0,3132.92,67.11,2789.0,9.0,2506.0,9.0,100589.0,108322.0,48.14921187,51.85078813,260.0,1.0,8.52659745,224.0,1.0,45.66346435,12.76620188,11.43788503,11.13488519,10.47096611,5.5746226860000005,2.9519747639999996,"33,330",16.8,2102,7,"52,557",1801,6,,100.0,0.0,2210.0,9.0,1.0,1.0,Tuscaloosa,Alabama,141.0,0.0,2304.0,9.0,1.0,1.0,33.28425,-87.09455
1127,1,64248.0,2258.16,28.45,2292.0,8.0,1971.0,7.0,31040.0,32671.0,48.72000126,51.27999874,579.0,2.0,13.135879199999998,1642.0,6.0,36.38461176,11.02478379,12.49077867,13.79196685,13.17197972,8.965484767000001,4.170394437,"11,231",17.9,2258,8,"45,434",973,4,,78.0,0.0,2139.0,9.0,1.0,1.0,Walker,Alabama,83.0,0.0,2134.0,8.0,1.0,1.0,33.81953,-87.00754
1129,1,16444.0,2472.0,6.65,1127.0,4.0,729.0,3.0,8055.0,8323.0,49.18182928,50.81817072,972.0,4.0,12.98082794,1586.0,6.0,36.34143363,10.69117108,12.2786665,14.39736232,13.31053853,8.657955794,4.322872146,"2,846",17.6,2219,8,"44,424",853,3,,12.0,1.0,1319.0,6.0,1619.0,7.0,Washington,Alabama,15.0,1.0,1325.0,5.0,1519.0,6.0,31.1718,-88.00338
1131,0,10872.0,2021.68,5.38,773.0,3.0,621.0,3.0,5056.0,5571.0,47.57692670000001,52.42307329999999,127.0,1.0,13.25868072,1685.0,6.0,38.96678272,10.567422599999999,11.18848217,12.59998118,13.41865061,8.346664157000001,4.912016562,"3,504",33.4,3067,10,"25,385",1,1,,25.0,0.0,1707.0,7.0,1.0,1.0,Wilcox,Alabama,45.0,0.0,1903.0,8.0,1.0,1.0,31.88219,-87.4598
1133,1,25917.0,1747.17,14.83,1535.0,5.0,1357.0,5.0,11655.0,12005.0,49.26035503,50.73964497,1053.0,4.0,15.12679628,2358.0,8.0,33.27979713,10.51986475,12.48098056,14.98309383,13.60946746,10.21555368,4.911242604,"4,338",18.6,2359,8,"41,156",545,2,,4.0,0.0,662.0,3.0,1.0,1.0,Winston,Alabama,9.0,0.0,1045.0,4.0,1.0,1.0,34.23388,-87.18817
4001,3,74172.0,24895.1,2.98,2368.0,8.0,419.0,2.0,35310.0,36508.0,49.16594726,50.83405274,952.0,4.0,10.22167145,559.0,2.0,43.62137626,11.63496616,10.57534323,12.70015873,11.24648417,6.804700771,3.416970676,"26,435",37.3,3091,10,"33,652",95,1,,66.0,3.0,2077.0,8.0,2157.0,9.0,Apache,Arizona,169.0,4.0,2348.0,9.0,2190.0,9.0,33.86056,-109.17681
4003,4,128307.0,16655.0,7.7,2614.0,9.0,826.0,3.0,64380.0,62390.0,50.78488601,49.21511399,2451.0,8.0,15.55651968,2477.0,8.0,36.97325866,11.90818017,9.996844679,12.00757277,13.55762404,10.40151455,5.155005127,"18,273",15.1,1752,6,"49,164",1414,5,,13.0,0.0,1369.0,6.0,1.0,1.0,Cochise,Arizona,22.0,0.0,1548.0,6.0,1.0,1.0,32.17426,-110.37704
4005,5,136717.0,30363.55,4.5,2637.0,9.0,556.0,2.0,70580.0,72274.0,49.40708696,50.59291304,1220.0,4.0,7.798871576,127.0,1.0,48.66087054,12.09486609,10.18312403,10.87613928,10.38612849,5.439119661,2.359751915,"20,964",15.9,1935,7,"60,187",2439,8,,238.0,15.0,2392.0,10.0,2466.0,10.0,Coconino,Arizona,314.0,29.0,2478.0,10.0,2584.0,10.0,34.45127,-110.86441
4007,4,50156.0,8743.88,5.74,2139.0,7.0,646.0,3.0,26644.0,27245.0,49.44237228,50.55762772,1263.0,5.0,20.09501011,3006.0,10.0,31.59271837,9.46018668,8.669672846000001,12.95069495,17.23171705,13.66698213,6.428027983,"10,804",20.4,2569,9,"43,585",772,3,,3.0,0.0,483.0,2.0,1.0,1.0,Gila,Arizona,7.0,0.0,898.0,4.0,1.0,1.0,33.00418,-110.786
4009,4,37670.0,5474.44,6.88,1879.0,7.0,749.0,3.0,20283.0,17789.0,53.27537298,46.72462702,2912.0,10.0,9.608110948,415.0,2.0,45.29575541,13.61105274,11.70939273,10.24637529,9.529312881000001,6.135742802999999,3.472368145,"7,118",20.2,2541,9,"50,157",1510,5,,2.0,0.0,291.0,2.0,1.0,1.0,Graham,Arizona,2.0,0.0,250.0,1.0,1.0,1.0,33.106159999999996,-110.23728999999999
4011,5,9469.0,5015.73,1.89,670.0,3.0,295.0,1.0,4871.0,4612.0,51.3656016,48.6343984,2651.0,9.0,8.847411157,273.0,1.0,43.70979648,14.64726352,11.69461141,11.14626173,9.954655699999998,5.272593061,3.5748180960000004,985,10.5,689,3,"65,818",2697,9,,2.0,0.0,291.0,2.0,1.0,1.0,Greenlee,Arizona,2.0,0.0,250.0,1.0,1.0,1.0,33.32098,-109.38563
4012,4,20701.0,7680.35,2.7,1331.0,5.0,388.0,2.0,10820.0,10278.0,51.28448194,48.71551806,2627.0,9.0,31.30628496,3108.0,10.0,27.51445635,8.536354157,7.626315291,10.63133946,14.38524979,20.02085506,11.2854299,"4,921",23.7,2821,10,"37,350",256,1,,4.0,0.0,662.0,3.0,1.0,1.0,La Paz,Arizona,5.0,1.0,704.0,3.0,1519.0,6.0,33.99878,-113.90158999999998
4013,5,4270185.0,18920.25,225.69,3097.0,10.0,2890.0,10.0,2181718.0,2229106.0,49.46282146,50.53717854,1286.0,5.0,10.39531389,602.0,2.0,40.73705956,13.7470459,12.70526777,12.16559536,10.24971751,6.82652493,3.568788961,"535,183",12.3,1098,4,"65,234",2684,9,,1891.0,47.0,2579.0,10.0,2564.0,10.0,Maricopa,Arizona,2491.0,70.0,2671.0,10.0,2648.0,10.0,33.450759999999995,-112.07836
4015,3,205179.0,26632.37,7.7,2781.0,9.0,826.0,3.0,105979.0,103571.0,50.57456454,49.42543546,2339.0,8.0,21.49844906,3055.0,10.0,28.58458602,9.526604629,9.401574802999999,13.50226676,17.48651873,14.66857552,6.829873538999999,"34,411",16.8,2102,7,"45,129",935,4,,30.0,2.0,1790.0,7.0,1990.0,8.0,Mohave,Arizona,52.0,2.0,1966.0,8.0,1910.0,8.0,34.709270000000004,-113.56826000000001
4017,3,111129.0,25277.27,4.4,2551.0,9.0,540.0,2.0,55281.0,55164.0,50.05296754,49.94703246,1969.0,7.0,12.04309838,1190.0,4.0,41.42786002,11.2399837,10.42057133,12.169858300000001,12.69862828,8.316356557999999,3.7267418169999997,"30,876",28.5,3008,10,"40,650",511,2,,321.0,7.0,2436.0,10.0,2352.0,9.0,Navajo,Arizona,452.0,11.0,2535.0,10.0,2451.0,10.0,34.29984,-109.99991000000001
4019,5,1011756.0,22300.81,45.37,3056.0,10.0,2313.0,8.0,511456.0,527617.0,49.22233568,50.77766432,1018.0,4.0,13.74003559,1894.0,7.0,39.64658883,11.74874143,10.94369693,11.61362099,12.30731623,8.908517496,4.831518094,"164,927",16.2,1999,7,"53,395",1880,7,,591.0,29.0,2502.0,10.0,2538.0,10.0,Pima,Arizona,856.0,56.0,2599.0,10.0,2638.0,10.0,32.229440000000004,-112.65433999999999
4021,4,410769.0,10227.4,40.16,2929.0,10.0,2233.0,8.0,232917.0,214221.0,52.09062974,47.90937026,2801.0,10.0,14.07619124,2044.0,7.0,36.96733447,13.386023999999999,12.06763907,11.07264424,12.43016697,10.11678721,3.9594040319999997,"54,399",12.9,1249,5,"58,848",2346,8,,146.0,3.0,2300.0,9.0,2157.0,9.0,Pinal,Arizona,235.0,6.0,2422.0,9.0,2314.0,9.0,33.3534,-111.35045
4023,4,46986.0,3412.32,13.77,2085.0,7.0,1284.0,5.0,22473.0,24038.0,48.31760229,51.68239771,343.0,2.0,12.49381867,1394.0,5.0,42.12981875,10.69209434,11.02534884,11.88321042,11.77570897,8.402313431,4.091505235,"11,287",24.4,2861,10,"40,545",502,2,,8.0,0.0,1074.0,5.0,1.0,1.0,Santa Cruz,Arizona,16.0,0.0,1365.0,6.0,1.0,1.0,31.661440000000002,-110.51203000000001
4025,5,227838.0,20947.67,10.88,2812.0,10.0,1080.0,4.0,113321.0,118672.0,48.84673244,51.15326756,671.0,3.0,21.504959200000002,3056.0,10.0,27.46160444,8.865353696,9.176138935,13.43531917,19.55662455,14.71984068,6.785118517000001,"30,060",13.2,1328,5,"48,758",1362,5,,63.0,1.0,2067.0,8.0,1619.0,7.0,Yavapai,Arizona,72.0,1.0,2085.0,8.0,1519.0,6.0,34.119170000000004,-112.04425
4027,4,207933.0,7377.95,28.18,2784.0,9.0,1965.0,7.0,109306.0,102822.0,51.52832252,48.47167748,2694.0,9.0,14.19284583,2081.0,7.0,43.86502489,12.41938829,10.06043521,10.10333384,9.358971941,8.848902549,5.34394328,"39,648",19.5,2465,8,"44,116",820,3,,15.0,0.0,1460.0,6.0,1.0,1.0,Yuma,Arizona,24.0,1.0,1604.0,6.0,1519.0,6.0,33.02342,-113.28108999999999
5001,1,18805.0,2765.04,6.8,1245.0,5.0,741.0,3.0,8593.0,9176.0,48.359502500000005,51.640497499999995,366.0,2.0,13.30406888,1713.0,6.0,36.72125612,10.87286848,12.05470201,13.60796893,13.43913557,8.340368057000001,4.963700827,"3,120",17.9,2258,8,"43,887",805,3,,2.0,0.0,291.0,2.0,1.0,1.0,Arkansas,Arkansas,2.0,0.0,250.0,1.0,1.0,1.0,34.38592,-91.3978
5003,0,21085.0,2505.49,8.42,1350.0,5.0,878.0,3.0,9771.0,10275.0,48.74289135,51.25710865,592.0,2.0,14.06265589,2040.0,7.0,36.58086401,10.490871,12.2867405,13.79327547,12.78559314,9.543050982999999,4.519604909,"3,876",19.6,2482,8,"41,127",543,2,,10.0,0.0,1204.0,5.0,1.0,1.0,Ashley,Arkansas,11.0,0.0,1147.0,5.0,1.0,1.0,33.130140000000004,-92.00055
5005,3,40416.0,1154.48,35.01,1946.0,7.0,2137.0,7.0,20096.0,21523.0,48.28563877,51.71436123,330.0,2.0,22.63149043,3076.0,10.0,28.39568466,9.39715034,9.721521421,13.51546169,16.33869146,14.60390687,8.027583556,"6,216",15.1,1752,6,"39,686",437,2,,4.0,0.0,662.0,3.0,1.0,1.0,Baxter,Arkansas,5.0,0.0,704.0,3.0,1.0,1.0,36.45017,-92.23374
5007,2,249039.0,2472.85,100.71,2829.0,10.0,2660.0,9.0,135582.0,137026.0,49.73515084,50.26484916,1617.0,6.0,9.14536624,320.0,2.0,41.56517784,15.23616328,13.15405271,11.6009068,9.298333138,6.014497007,3.1308692330000003,"23,290",8.6,304,1,"68,978",2806,10,,47.0,0.0,1977.0,8.0,1.0,1.0,Benton,Arkansas,62.0,0.0,2028.0,8.0,1.0,1.0,36.35041,-94.25426
5009,2,36058.0,1505.2,23.96,1835.0,6.0,1813.0,6.0,18443.0,19037.0,49.20757737,50.79242263,1001.0,4.0,14.57844184,2207.0,8.0,36.52347919,11.24066169,11.68089648,13.479188899999999,12.49733191,9.503735326000001,5.07470651,"5,472",14.8,1692,6,"44,482",862,3,,3.0,0.0,483.0,2.0,1.0,1.0,Boone,Arkansas,3.0,0.0,424.0,2.0,1.0,1.0,36.23725,-93.09178
5011,0,11239.0,1496.08,7.51,797.0,3.0,811.0,3.0,5306.0,5591.0,48.69230063,51.30769937,558.0,2.0,13.278884099999999,1697.0,6.0,37.20289988,11.91153528,12.04001101,13.11370102,12.45296871,8.36009911,4.9187849869999996,"2,329",21.7,2688,9,"37,729",284,1,,6.0,0.0,888.0,4.0,1.0,1.0,Bradley,Arkansas,7.0,0.0,898.0,4.0,1.0,1.0,33.580059999999996,-92.26493
5013,1,4017.0,1124.39,3.57,255.0,1.0,475.0,2.0,2662.0,2615.0,50.44532879,49.55467121,2256.0,8.0,14.42107258,2160.0,7.0,32.91642979,10.68789085,11.91965132,15.40648096,14.64847451,9.1529278,5.268144779,800,15.7,1899,7,"44,969",923,3,,,,,,,,,,,,,,,,33.63755,-92.72031
5015,2,28690.0,1690.8,16.97,1631.0,6.0,1479.0,5.0,14047.0,14176.0,49.77146299,50.22853701,1654.0,6.0,15.427133900000001,2447.0,8.0,34.43999575,10.41703575,11.01938136,13.20199837,15.49445488,10.67569004,4.751443858,"4,499",16.1,1978,7,"45,023",927,3,,2.0,0.0,291.0,2.0,1.0,1.0,Carroll,Arkansas,2.0,0.0,250.0,1.0,1.0,1.0,36.25034,-93.3303
5017,0,11280.0,1782.78,6.33,800.0,3.0,700.0,3.0,5272.0,5166.0,50.50776011,49.49223989,2291.0,8.0,14.04483618,2032.0,7.0,36.44376317,10.79708756,11.17072236,13.56581721,13.97777352,8.421153477999999,5.623682698,"3,039",31.4,3044,10,"31,787",52,1,,5.0,0.0,798.0,4.0,1.0,1.0,Chicot,Arkansas,7.0,0.0,898.0,4.0,1.0,1.0,33.5193,-91.48056
5019,2,20791.0,1789.67,11.62,1335.0,5.0,1138.0,4.0,10452.0,11609.0,47.377725399999996,52.622274600000004,97.0,1.0,11.699378999999999,1032.0,4.0,46.54820724,9.741172204,10.15819772,11.13276823,10.720275599999999,7.470196274,4.229182721,"3,838",19.9,2511,9,"45,408",968,4,,27.0,0.0,1745.0,7.0,1.0,1.0,Clark,Arkansas,27.0,0.0,1660.0,7.0,1.0,1.0,33.88688,-93.11776
5021,0,15144.0,1559.64,9.71,1041.0,4.0,992.0,4.0,7255.0,7592.0,48.86509059,51.13490941,687.0,3.0,15.50481579,2468.0,8.0,35.58294605,10.80352933,11.51747828,14.03650569,12.55472486,10.02222671,5.482589075,"3,035",20.7,2604,9,"37,687",281,1,,1.0,0.0,1.0,1.0,1.0,1.0,Clay,Arkansas,1.0,0.0,1.0,1.0,1.0,1.0,36.419290000000004,-90.54196
5023,2,24999.0,1387.19,18.02,1499.0,5.0,1544.0,5.0,12277.0,12688.0,49.17684759,50.82315241,965.0,4.0,19.63949529,2975.0,10.0,30.09012618,10.17824955,10.73502904,14.47226117,14.88483877,12.68576006,6.953735228999999,"3,573",14.6,1654,6,"44,902",912,3,,69.0,4.0,2099.0,9.0,2247.0,9.0,Cleburne,Arkansas,70.0,4.0,2076.0,8.0,2190.0,9.0,35.672129999999996,-92.1713
5025,2,7669.0,1334.78,5.75,537.0,2.0,648.0,3.0,3978.0,4040.0,49.61336992,50.38663008,1478.0,5.0,14.38014468,2146.0,7.0,34.63457221,11.01272138,12.27238713,14.28036917,13.41980544,9.45372911,4.926415565,"1,232",15.5,1855,6,"47,600",1220,4,,8.0,0.0,1074.0,5.0,1.0,1.0,Cleveland,Arkansas,8.0,0.0,977.0,4.0,1.0,1.0,33.930679999999995,-92.33570999999999
5027,1,24573.0,1981.64,12.4,1488.0,5.0,1193.0,4.0,11352.0,12185.0,48.23044568,51.76955432,301.0,1.0,12.24455113,1285.0,5.0,44.17725284,10.48986702,10.02676637,11.87492034,11.18664231,7.392615881,4.8519352510000004,"4,799",22.4,2736,9,"40,909",530,2,,3.0,0.0,483.0,2.0,1.0,1.0,Columbia,Arkansas,5.0,0.0,704.0,3.0,1.0,1.0,33.081140000000005,-93.16366
5029,1,20114.0,1326.14,15.17,1304.0,5.0,1375.0,5.0,10260.0,10631.0,49.11205782,50.88794218,907.0,3.0,13.83849505,1937.0,7.0,35.79053181,11.50256091,11.64616342,14.27887607,12.94337274,8.735819252,5.102675793,"3,693",17.9,2258,8,"44,565",870,3,,4.0,1.0,662.0,3.0,1619.0,7.0,Conway,Arkansas,5.0,1.0,704.0,3.0,1519.0,6.0,35.37104,-92.57652
5031,1,106530.0,2086.09,51.07,2533.0,9.0,2369.0,8.0,52730.0,55828.0,48.57311299,51.42688701,487.0,2.0,9.354446471000001,366.0,2.0,43.68632436,13.95106763,11.95397852,11.30547726,9.748705761,6.005084838999999,3.349361632,"18,768",17.9,2258,8,"45,615",989,4,,31.0,0.0,1807.0,7.0,1.0,1.0,Craighead,Arkansas,43.0,1.0,1883.0,7.0,1519.0,6.0,35.87894,-90.66056999999999
5033,2,63683.0,1466.48,43.43,2283.0,8.0,2281.0,8.0,31258.0,32148.0,49.29817367,50.70182633,1097.0,4.0,11.32858089,897.0,3.0,38.79128158,12.19600669,12.60448538,13.36939722,11.71024824,7.620729899,3.707850992,"10,027",16.0,1956,7,"47,363",1187,4,,3.0,0.0,483.0,2.0,1.0,1.0,Crawford,Arkansas,4.0,0.0,572.0,3.0,1.0,1.0,35.47552,-94.19436999999999
5035,0,48058.0,1316.74,36.5,2103.0,7.0,2168.0,7.0,23011.0,25331.0,47.60043027,52.39956973,131.0,1.0,9.395556659,380.0,2.0,42.98953291,12.34123536,11.7165198,12.92457904,10.63257623,6.290596169,3.10496049,"9,056",19.2,2435,8,"42,606",675,3,,89.0,2.0,2183.0,9.0,1990.0,8.0,Crittenden,Arkansas,138.0,4.0,2296.0,9.0,2190.0,9.0,35.1448,-90.18805
5037,1,16893.0,1451.6,11.64,1154.0,4.0,1140.0,4.0,8044.0,8632.0,48.23698729,51.76301271,307.0,1.0,13.18061885,1659.0,6.0,37.46701847,11.41760614,12.40705205,13.46845766,12.05924682,8.821060206,4.359558647,"2,940",18.0,2274,8,"41,214",551,2,,6.0,0.0,888.0,4.0,1.0,1.0,Cross,Arkansas,8.0,0.0,977.0,4.0,1.0,1.0,35.38816,-90.78199000000001
5039,1,7610.0,1381.71,5.51,532.0,2.0,630.0,3.0,3549.0,3633.0,49.41520468,50.58479532,1226.0,4.0,16.26287942,2618.0,9.0,34.08521303,10.76301866,10.484544699999999,13.49206349,14.9122807,10.21999443,6.04288499,"1,442",21.3,2651,9,"37,259",247,1,,1.0,0.0,1.0,1.0,1.0,1.0,Dallas,Arkansas,1.0,0.0,1.0,1.0,1.0,1.0,34.04513,-92.55299000000001
5041,0,12631.0,1723.89,7.33,894.0,3.0,796.0,3.0,5437.0,6075.0,47.22897846,52.77102154,73.0,1.0,12.786657400000001,1509.0,5.0,38.7248089,11.25781793,10.49339819,13.09937457,13.63794302,8.330437803999999,4.456219597,"2,780",24.3,2856,10,"36,132",186,1,,6.0,0.0,888.0,4.0,1.0,1.0,Desha,Arkansas,7.0,0.0,898.0,4.0,1.0,1.0,33.623459999999994,-91.20873
5043,1,17246.0,1390.77,12.4,1169.0,4.0,1193.0,4.0,8955.0,9373.0,48.85966827,51.14033173,684.0,3.0,12.23810563,1281.0,5.0,42.15953732,10.99410738,10.814055,12.43998254,11.35421213,7.4803579220000005,4.757747708,"3,391",19.5,2465,8,"42,494",661,3,,6.0,1.0,888.0,4.0,1619.0,7.0,Drew,Arkansas,6.0,1.0,808.0,3.0,1519.0,6.0,33.63088,-91.7465
5045,2,121955.0,1702.09,71.65,2593.0,9.0,2526.0,9.0,60992.0,63814.0,48.86944538,51.13055462,691.0,3.0,8.256814576,183.0,1.0,45.6652725,13.300642600000002,11.9385286,11.48822973,9.350511995,5.589474865,2.667339711,"18,571",15.4,1827,6,"53,882",1936,7,,57.0,1.0,2037.0,8.0,1619.0,7.0,Faulkner,Arkansas,62.0,2.0,2028.0,8.0,1910.0,8.0,35.07331,-92.36154
5047,1,18173.0,1386.6,13.11,1223.0,4.0,1242.0,5.0,8908.0,8902.0,50.01684447,49.98315553,1936.0,7.0,13.45311623,1784.0,6.0,36.96799551,11.41493543,11.9427288,13.67209433,12.5491297,8.411005053,5.042111173,"3,202",18.3,2319,8,"43,696",786,3,,1.0,0.0,1.0,1.0,1.0,1.0,Franklin,Arkansas,1.0,0.0,1.0,1.0,1.0,1.0,35.442170000000004,-93.72353000000001
5049,2,10294.0,1462.29,7.04,734.0,3.0,765.0,3.0,6021.0,6248.0,49.07490423,50.92509577,867.0,3.0,18.39595729,2888.0,10.0,31.86893797,9.422120792000001,10.7425218,13.87236124,15.698100899999998,11.98141658,6.414540712000001,"2,481",20.6,2593,9,"35,630",161,1,,,,,,,,,,,,,,,,36.27636,-92.05641
5051,1,105275.0,1906.28,55.23,2529.0,9.0,2420.0,8.0,47660.0,51494.0,48.06664381,51.93335619,228.0,1.0,16.59842266,2679.0,9.0,33.30980092,11.037376199999999,11.21992053,13.24908728,14.58539242,10.8084394,5.7899832579999995,"19,844",20.4,2569,9,"43,610",776,3,,72.0,0.0,2115.0,9.0,1.0,1.0,Garland,Arkansas,107.0,0.0,2219.0,9.0,1.0,1.0,34.52697,-92.97158
5053,2,16650.0,1698.98,9.8,1141.0,4.0,997.0,4.0,8985.0,9203.0,49.40070376,50.59929624,1212.0,4.0,12.50274907,1400.0,5.0,36.17220145,12.2223444,12.96459204,14.24015835,11.8979547,8.456124917999999,4.046624148,"2,353",13.1,1309,5,"52,050",1751,6,,9.0,0.0,1147.0,5.0,1.0,1.0,Grant,Arkansas,11.0,0.0,1147.0,5.0,1.0,1.0,34.14421,-92.31452
5055,2,43711.0,1329.08,32.89,2010.0,7.0,2095.0,7.0,22289.0,23036.0,49.17595146,50.82404854,964.0,4.0,10.86376172,751.0,3.0,39.71759515,12.73248759,13.13403199,12.84280199,10.70932157,7.247655818999999,3.6161059019999997,"7,361",16.5,2045,7,"46,512",1083,4,,6.0,0.0,888.0,4.0,1.0,1.0,Greene,Arkansas,8.0,0.0,977.0,4.0,1.0,1.0,36.124159999999996,-90.69436
5057,1,20871.0,1559.63,13.38,1342.0,5.0,1262.0,5.0,10482.0,11259.0,48.21305368,51.78694632,292.0,1.0,12.63511338,1455.0,5.0,39.76817994,10.81367002,11.24143324,13.45844257,12.08316085,8.095303804,4.539809576000001,"4,424",20.6,2593,9,"38,682",357,2,,4.0,1.0,662.0,3.0,1619.0,7.0,Hempstead,Arkansas,5.0,1.0,704.0,3.0,1519.0,6.0,33.64419,-93.59448
5059,1,33919.0,1797.27,18.87,1777.0,6.0,1594.0,6.0,17643.0,16058.0,52.35156227,47.64843773,2839.0,10.0,12.74146168,1497.0,5.0,35.48262663,12.15394202,12.81861072,13.76813744,13.03522151,8.551675024,4.1897866530000005,"5,844",18.7,2371,8,"47,205",1169,4,,8.0,0.0,1074.0,5.0,1.0,1.0,Hot Spring,Arkansas,8.0,0.0,977.0,4.0,1.0,1.0,34.24924,-93.39336999999999
5061,1,14778.0,1503.7,9.83,1023.0,4.0,998.0,4.0,6417.0,6924.0,48.09984259,51.90015741,242.0,1.0,12.68270744,1476.0,5.0,39.71966119,11.75324189,11.16108238,13.29735402,11.38595308,8.012892587,4.669814856,"2,271",17.3,2173,7,"40,199",474,2,,6.0,0.0,888.0,4.0,1.0,1.0,Howard,Arkansas,13.0,0.0,1242.0,5.0,1.0,1.0,34.144690000000004,-94.04101999999999
5063,2,35796.0,1775.22,20.16,1828.0,6.0,1660.0,6.0,18371.0,19307.0,48.75789585,51.24210415,599.0,2.0,12.19013748,1257.0,5.0,38.90599289,12.01762302,12.21933224,12.80588142,11.86103296,7.710069537000001,4.480067944,"5,302",14.5,1628,6,"45,596",986,4,,5.0,0.0,798.0,4.0,1.0,1.0,Independence,Arkansas,8.0,0.0,977.0,4.0,1.0,1.0,35.57546,-91.45792
5065,1,14459.0,1739.21,8.31,1005.0,4.0,869.0,3.0,7050.0,6543.0,51.86493048,48.13506952,2761.0,9.0,18.56838078,2905.0,10.0,30.13315677,10.586331199999998,11.57948944,14.45596998,14.67667182,11.6751269,6.893253881000001,"2,358",18.7,2371,8,"37,828",295,1,,1.0,0.0,1.0,1.0,1.0,1.0,Izard,Arkansas,2.0,0.0,250.0,1.0,1.0,1.0,36.220490000000005,-91.7465
5067,0,15347.0,1258.04,12.2,1055.0,4.0,1179.0,4.0,8348.0,8463.0,49.65796205,50.34203795,1533.0,5.0,12.39664505,1356.0,5.0,35.64332877,13.47926953,12.64648147,13.4911665,12.34310868,8.321932067999999,4.074712986000001,"3,732",25.6,2918,10,"36,573",203,1,,,,,,,,Jackson,Arkansas,1.0,0.0,1.0,1.0,1.0,1.0,35.54,-91.07153000000001
5069,0,70911.0,1877.4,37.77,2350.0,8.0,2194.0,8.0,33662.0,34452.0,49.42008985,50.57991015,1234.0,4.0,11.50424289,976.0,4.0,39.19311742,12.07387615,11.35743019,13.1984614,12.67287195,7.510937546,3.993305341,"13,900",22.2,2723,9,"38,596",351,2,,91.0,2.0,2188.0,9.0,1990.0,8.0,Jefferson,Arkansas,118.0,6.0,2250.0,9.0,2314.0,9.0,34.177170000000004,-91.90319000000001
5071,2,25549.0,1821.86,14.02,1518.0,5.0,1298.0,5.0,13264.0,13478.0,49.59988034,50.40011966,1462.0,5.0,11.33797023,906.0,3.0,40.38964924,12.40370952,11.39780121,13.188991099999999,11.28187869,7.512527111,3.8254431230000003,"5,761",22.2,2723,9,"39,381",403,2,,13.0,0.0,1369.0,6.0,1.0,1.0,Johnson,Arkansas,21.0,0.0,1518.0,6.0,1.0,1.0,35.51384,-93.51169
5073,0,6379.0,1178.08,5.41,430.0,2.0,623.0,3.0,3283.0,3399.0,49.13199641,50.86800359,924.0,3.0,17.65938342,2810.0,10.0,32.02633942,9.218796767,11.10445974,15.30978749,14.68123316,11.50853038,6.150853037999999,"1,498",22.8,2760,9,"35,527",158,1,,2.0,0.0,291.0,2.0,1.0,1.0,Lafayette,Arkansas,4.0,0.0,572.0,3.0,1.0,1.0,33.09207,-93.72343000000001
5075,1,18893.0,1967.48,9.6,1252.0,5.0,983.0,4.0,8112.0,8322.0,49.36108069,50.63891931,1172.0,4.0,14.37872703,2144.0,7.0,37.79968358,10.87379822,11.43361324,13.53291956,11.98125837,9.042229524,5.336497505,"2,776",17.7,2232,8,"40,308",482,2,,10.0,1.0,1204.0,5.0,1619.0,7.0,Lawrence,Arkansas,26.0,1.0,1643.0,7.0,1519.0,6.0,35.93353,-91.09786
5077,0,8750.0,1241.88,7.05,617.0,2.0,766.0,3.0,5049.0,3936.0,56.19365609,43.80634391,3040.0,10.0,13.90094602,1968.0,7.0,34.29048414,13.5114079,13.27768503,13.02170284,11.99777407,8.78130217,5.119643851,"3,098",43.0,3102,10,"28,080",12,1,,2.0,0.0,291.0,2.0,1.0,1.0,Lee,Arkansas,3.0,1.0,424.0,2.0,1519.0,6.0,34.723859999999995,-90.89146
5079,1,13245.0,1190.07,11.13,927.0,3.0,1096.0,4.0,8273.0,5110.0,61.81723082,38.18276918,3091.0,10.0,10.73003064,713.0,3.0,35.71695435,16.16976762,13.853396100000001,13.59934245,9.930508855,6.702533064,4.027497572,"2,647",27.5,2994,10,"44,951",921,3,,10.0,0.0,1204.0,5.0,1.0,1.0,Lincoln,Arkansas,111.0,0.0,2235.0,9.0,1.0,1.0,34.01741,-91.57343
5081,1,12417.0,1241.64,10.0,876.0,3.0,1015.0,4.0,5936.0,6390.0,48.15836443,51.84163557,265.0,1.0,14.43290605,2164.0,7.0,35.48596463,10.94434529,12.19373682,13.47558007,13.46746714,9.938341717,4.494564336,"1,942",16.0,1956,7,"43,559",768,3,,,,,,,,,,,,,,,,33.79444,-94.26819
5083,1,22155.0,1933.73,11.46,1397.0,5.0,1120.0,4.0,10852.0,10885.0,49.92409256,50.07590744,1833.0,6.0,13.63113585,1843.0,6.0,35.38206744,10.80185858,12.31540691,14.90086028,12.96867093,9.016883655,4.614252197,"3,950",18.6,2359,8,"41,471",571,2,,2.0,0.0,291.0,2.0,1.0,1.0,Logan,Arkansas,3.0,0.0,424.0,2.0,1.0,1.0,35.122859999999996,-93.70926999999999
5085,2,38311.0,2155.46,17.77,1896.0,7.0,1523.0,5.0,36302.0,37355.0,49.28520032,50.71479968,1082.0,4.0,8.889854325,279.0,1.0,40.86101796,14.21996552,13.23024288,12.73062981,10.0682895,6.0605237789999995,2.8293305460000004,"8,651",11.9,1002,4,"56,651",2176,8,,27.0,0.0,1745.0,7.0,1.0,1.0,Lonoke,Arkansas,26.0,0.0,1643.0,7.0,1.0,1.0,35.00246,-91.98193
5087,1,15664.0,2285.97,6.85,1075.0,4.0,744.0,3.0,8229.0,8252.0,49.93022268,50.06977732,1838.0,6.0,12.6327286,1454.0,5.0,37.01231721,11.2493174,11.7650628,13.9311935,13.4093805,8.488562587,4.144166009,"3,002",18.4,2336,8,"42,674",680,3,,1.0,0.0,1.0,1.0,1.0,1.0,Madison,Arkansas,1.0,0.0,1.0,1.0,1.0,1.0,35.82736,-93.78939
5089,1,14973.0,1279.84,11.7,1027.0,4.0,1145.0,4.0,8209.0,8513.0,49.09101782,50.90898218,882.0,3.0,19.1065662,2946.0,10.0,28.63891879,8.934337998,9.639995216,14.73507954,18.94510226,13.49718933,5.609376869,"3,082",18.7,2371,8,"36,581",204,1,,1.0,0.0,1.0,1.0,1.0,1.0,Marion,Arkansas,1.0,0.0,1.0,1.0,1.0,1.0,36.378820000000005,-92.58506
5091,0,43759.0,1591.11,27.5,2011.0,7.0,1939.0,7.0,21411.0,22181.0,49.11681042,50.88318958,908.0,3.0,11.53652046,987.0,4.0,38.73187741,12.7064599,12.30959809,13.1308497,11.58469444,7.5908423560000005,3.9456781060000004,"9,228",21.9,2701,9,"42,162",631,3,,22.0,0.0,1652.0,7.0,1.0,1.0,Miller,Arkansas,29.0,0.0,1697.0,7.0,1.0,1.0,33.11619,-93.95382
5093,0,42528.0,1872.42,22.71,1989.0,7.0,1768.0,6.0,20077.0,21162.0,48.68449768,51.31550232,551.0,2.0,9.79170203,456.0,2.0,41.98452921,12.23356531,11.46730037,13.20837072,11.31453236,6.324110672000001,3.467591358,"10,325",25.7,2924,10,"36,718",210,1,,7.0,0.0,1000.0,4.0,1.0,1.0,Mississippi,Arkansas,8.0,0.0,977.0,4.0,1.0,1.0,35.90486,-89.90133
5095,0,7141.0,1147.57,6.22,492.0,2.0,688.0,3.0,3209.0,3691.0,46.50724638,53.49275362,28.0,1.0,15.79710145,2530.0,9.0,34.10144928,9.565217391000001,10.1884058,14.92753623,15.42028986,9.608695652,6.188405797000001,"1,769",26.0,2942,10,"32,922",75,1,,1.0,0.0,1.0,1.0,1.0,1.0,Monroe,Arkansas,3.0,0.0,424.0,2.0,1.0,1.0,34.846740000000004,-91.22426999999999
5097,1,7494.0,1524.67,4.92,524.0,2.0,586.0,2.0,4414.0,4510.0,49.46212461,50.53787539,1284.0,5.0,19.32989691,2957.0,10.0,29.94173017,8.191393994,10.51098162,16.30434783,15.72164948,12.66248319,6.667413716,"1,649",18.8,2386,8,"38,318",332,2,,,,,,,,,,,,,,,,34.39144,-93.7639
5099,1,8414.0,1497.04,5.62,591.0,2.0,638.0,3.0,4126.0,4200.0,49.55560894,50.44439106,1415.0,5.0,14.36464088,2137.0,7.0,35.563295700000005,10.55729042,11.698294500000001,14.14845064,13.66802786,9.079990392000001,5.284650492,"1,738",21.3,2651,9,"37,626",277,1,,1.0,0.0,1.0,1.0,1.0,1.0,Nevada,Arkansas,1.0,0.0,1.0,1.0,1.0,1.0,33.7154,-93.15366
5101,2,6419.0,1513.32,4.24,435.0,2.0,527.0,2.0,3954.0,3851.0,50.65983344,49.34016656,2387.0,8.0,18.09096733,2862.0,10.0,30.82639334,9.98078155,10.19859065,14.10634209,16.79692505,12.59449071,5.496476617999999,"1,340",17.4,2191,8,"36,078",182,1,,1.0,0.0,1.0,1.0,1.0,1.0,Newton,Arkansas,2.0,0.0,250.0,1.0,1.0,1.0,36.061690000000006,-93.37471
5103,1,25110.0,2193.76,11.45,1505.0,5.0,1119.0,4.0,11196.0,12410.0,47.42861984,52.57138016,109.0,1.0,13.50504109,1809.0,6.0,35.35965433,11.08192832,11.16241633,13.94560705,14.94535288,8.358044565,5.146996526000001,"5,410",23.3,2796,9,"37,624",276,1,,5.0,0.0,798.0,4.0,1.0,1.0,Ouachita,Arkansas,5.0,0.0,704.0,3.0,1.0,1.0,33.58632,-92.81988
5105,2,11039.0,1188.51,9.29,779.0,3.0,951.0,4.0,5113.0,5239.0,49.39142195,50.60857805,1199.0,4.0,13.77511592,1909.0,7.0,34.91112828,11.02202473,12.55795981,14.31607419,13.41769706,8.945131376,4.829984543999999,"1,502",14.7,1672,6,"45,342",958,4,,2.0,0.0,291.0,2.0,1.0,1.0,Perry,Arkansas,3.0,0.0,424.0,2.0,1.0,1.0,35.06646,-92.87931
5107,0,19447.0,1571.77,12.37,1275.0,5.0,1189.0,4.0,8476.0,9553.0,47.01314549,52.98685451,59.0,1.0,12.59082589,1441.0,5.0,40.32946919,10.11148705,10.14476676,13.18431416,13.63913695,8.153530423,4.437295468,"6,301",35.4,3081,10,"29,945",31,1,,3.0,0.0,483.0,2.0,1.0,1.0,Phillips,Arkansas,4.0,1.0,572.0,3.0,1519.0,6.0,34.05413,-91.02035
5109,2,10286.0,1084.31,9.49,733.0,3.0,972.0,4.0,5336.0,5337.0,49.99531528,50.00468472,1913.0,7.0,13.77307224,1908.0,7.0,34.66691652,10.69989694,13.23901434,13.92298323,13.69811674,8.891595615,4.881476623,"1,856",17.8,2244,8,"41,534",576,2,,2.0,0.0,291.0,2.0,1.0,1.0,Pike,Arkansas,2.0,0.0,250.0,1.0,1.0,1.0,34.02446,-93.41941
5111,0,24566.0,2044.87,12.01,1487.0,5.0,1165.0,4.0,11646.0,12328.0,48.57762576,51.42237424,492.0,2.0,12.38007842,1347.0,5.0,39.00892634,11.33311087,12.12146492,13.48127138,11.67514808,8.480020022,3.900058397,"5,592",23.7,2821,10,"37,370",259,1,,7.0,0.0,1000.0,4.0,1.0,1.0,Poinsett,Arkansas,10.0,0.0,1096.0,5.0,1.0,1.0,35.61566,-90.31656
5113,1,20186.0,2354.83,8.57,1306.0,5.0,894.0,3.0,9767.0,10282.0,48.71564667,51.28435333,578.0,2.0,15.92598135,2563.0,9.0,35.46311537,9.915706519,11.29233378,13.2275924,14.17527059,10.75365355,5.1723277969999994,"3,962",20.0,2520,9,"39,048",380,2,,6.0,0.0,888.0,4.0,1.0,1.0,Polk,Arkansas,7.0,0.0,898.0,4.0,1.0,1.0,34.39982,-94.3894
5115,2,64102.0,2037.08,31.47,2287.0,8.0,2058.0,7.0,31721.0,32279.0,49.5640625,50.4359375,1423.0,5.0,10.9375,770.0,3.0,42.7953125,12.01875,11.1828125,12.528125,10.5375,7.15625,3.78125,"9,647",16.0,1956,7,"45,788",1006,4,,26.0,0.0,1726.0,7.0,1.0,1.0,Pope,Arkansas,35.0,0.0,1786.0,7.0,1.0,1.0,35.73421,-92.82794
5117,1,7276.0,1167.83,6.23,504.0,2.0,690.0,3.0,4063.0,4011.0,50.322021299999996,49.677978700000004,2167.0,7.0,17.4386921,2786.0,9.0,32.20213029,10.35422343,11.19643299,14.763438199999998,14.04508298,10.81248452,6.62620758,"1,254",15.8,1915,7,"43,245",739,3,,2.0,0.0,291.0,2.0,1.0,1.0,Prairie,Arkansas,2.0,0.0,250.0,1.0,1.0,1.0,34.897259999999996,-91.41028
5119,2,426392.0,1909.17,223.34,2939.0,10.0,2889.0,10.0,187731.0,204949.0,47.80762962,52.19237038,165.0,1.0,10.13904452,534.0,2.0,39.52149333,13.88000407,12.13201589,12.55169604,11.77574615,6.567179382999999,3.5718651319999997,"64,312",16.7,2083,7,"49,957",1486,5,,249.0,9.0,2404.0,10.0,2396.0,10.0,Pulaski,Arkansas,377.0,12.0,2505.0,10.0,2471.0,10.0,34.95755,-92.0565
5121,1,16348.0,1331.14,12.28,1121.0,4.0,1185.0,4.0,8874.0,9074.0,49.44283486,50.55716514,1265.0,5.0,13.99598841,2006.0,7.0,37.586360600000006,11.73946958,11.33273902,13.07109427,12.27434812,8.613773122000001,5.3822152889999995,"3,050",17.4,2191,8,"37,799",292,1,,8.0,0.0,1074.0,5.0,1.0,1.0,Randolph,Arkansas,11.0,0.0,1147.0,5.0,1.0,1.0,36.30007,-90.82186
5123,0,27587.0,1832.43,15.05,1599.0,6.0,1371.0,5.0,14023.0,11416.0,55.12402217,44.87597783,3015.0,10.0,10.66079642,690.0,3.0,36.64452219,15.05562326,12.98793192,12.62628248,12.02484374,7.115059554,3.5457368610000004,"7,586",35.6,3084,10,"33,257",87,1,,31.0,0.0,1807.0,7.0,1.0,1.0,St. Francis,Arkansas,64.0,0.0,2042.0,8.0,1.0,1.0,35.06487,-90.82211
5125,2,116627.0,1774.37,65.73,2572.0,9.0,2499.0,9.0,59489.0,61932.0,48.993996100000004,51.006003899999996,802.0,3.0,12.23758658,1279.0,5.0,36.80253004,13.46225118,13.0117525,12.86103722,11.62484249,8.41452467,3.8230619089999998,"11,695",9.7,506,2,"63,677",2628,9,,32.0,1.0,1828.0,7.0,1619.0,7.0,Saline,Arkansas,43.0,1.0,1883.0,7.0,1519.0,6.0,34.66296,-92.52895
5127,1,8231.0,1426.34,5.77,577.0,2.0,650.0,3.0,5236.0,5083.0,50.74135091,49.25864909,2428.0,8.0,14.60412831,2213.0,8.0,36.37949414,10.52427561,11.13479988,14.75918209,12.59811997,9.96220564,4.641922667,"2,054",20.2,2541,9,"35,826",168,1,,1.0,0.0,1.0,1.0,1.0,1.0,Scott,Arkansas,1.0,0.0,1.0,1.0,1.0,1.0,34.842009999999995,-93.77212
5129,2,8832.0,1584.62,5.57,625.0,3.0,635.0,3.0,3988.0,3970.0,50.11309374,49.88690626,2022.0,7.0,17.60492586,2805.0,10.0,31.70394572,9.876853481,11.07062076,14.41316914,15.33048505,11.3596381,6.245287761,"1,912",24.3,2856,10,"31,659",47,1,,6.0,0.0,888.0,4.0,1.0,1.0,Searcy,Arkansas,6.0,0.0,808.0,3.0,1.0,1.0,36.135459999999995,-92.87199
5131,1,127806.0,1266.32,100.93,2612.0,9.0,2661.0,9.0,62418.0,65335.0,48.85834384,51.14165616,681.0,3.0,10.827143,738.0,3.0,39.92000188,12.65254045,12.09756327,13.09558288,11.40716852,7.029189138,3.7979538639999997,"19,527",15.6,1880,7,"46,843",1121,4,,10.0,0.0,1204.0,5.0,1.0,1.0,Sebastian,Arkansas,11.0,0.0,1147.0,5.0,1.0,1.0,35.3664,-94.41575999999999
5133,1,17310.0,1463.18,11.83,1175.0,4.0,1157.0,4.0,8622.0,8517.0,50.30631892,49.69368108,2160.0,7.0,9.913063773,476.0,2.0,44.29079876,11.610945800000001,12.23525293,11.838497,10.11144174,6.336425696,3.5766380769999997,"3,402",20.1,2533,9,"44,100",819,3,,6.0,0.0,888.0,4.0,1.0,1.0,Sevier,Arkansas,9.0,0.0,1045.0,4.0,1.0,1.0,33.8235,-94.1255
5135,1,19325.0,1473.67,13.11,1270.0,5.0,1242.0,5.0,8570.0,8796.0,49.34930324,50.65069676,1156.0,4.0,18.66290453,2912.0,10.0,32.40239549,9.23068064,11.10215363,13.39974663,15.20211908,12.09259473,6.5703098010000005,"3,541",20.7,2604,9,"36,032",179,1,,2.0,0.0,291.0,2.0,1.0,1.0,Sharp,Arkansas,2.0,0.0,250.0,1.0,1.0,1.0,36.27499,-91.36556999999999
5137,1,13862.0,1811.99,7.65,971.0,4.0,821.0,3.0,6135.0,6322.0,49.249418,50.750582,1043.0,4.0,19.73990527,2983.0,10.0,30.44071606,9.231757245,10.12282251,14.33732038,16.12747853,13.13317813,6.606727141,"2,497",20.3,2552,9,"34,009",108,1,,7.0,0.0,1000.0,4.0,1.0,1.0,Stone,Arkansas,7.0,0.0,898.0,4.0,1.0,1.0,35.7885,-92.30834
5139,1,39874.0,2470.16,16.14,1932.0,7.0,1437.0,5.0,19038.0,20088.0,48.65818126,51.34181874,533.0,2.0,12.06614527,1200.0,4.0,37.88529367,11.93324132,11.82589582,13.413075699999998,12.87634821,7.759546082000001,4.306599192,"7,000",18.2,2302,8,"45,335",955,4,,18.0,0.0,1550.0,6.0,1.0,1.0,Union,Arkansas,24.0,0.0,1604.0,6.0,1.0,1.0,33.32732,-92.53611
5141,2,15575.0,1548.58,10.06,1068.0,4.0,1018.0,4.0,8255.0,8348.0,49.71993013,50.28006987,1598.0,6.0,18.73757755,2918.0,10.0,30.72938626,9.913870987000001,11.09438053,14.00951635,15.51526833,12.02192375,6.715653798,"2,685",16.4,2032,7,"40,486",496,2,,26.0,2.0,1726.0,7.0,1990.0,8.0,Van Buren,Arkansas,26.0,2.0,1643.0,7.0,1910.0,8.0,35.456720000000004,-92.36836
5143,2,239123.0,3031.3,78.88,2821.0,10.0,2569.0,9.0,118335.0,118626.0,49.93859749,50.06140251,1848.0,6.0,7.796641641,126.0,1.0,47.034322100000004,14.16013606,11.72977832,10.62157908,8.657542802,5.146838509,2.6498031319999997,"34,741",15.2,1778,6,"50,893",1601,6,,37.0,0.0,1889.0,8.0,1.0,1.0,Washington,Arkansas,45.0,0.0,1903.0,8.0,1.0,1.0,35.98467,-94.08077
5145,1,81768.0,2975.08,27.48,2421.0,8.0,1937.0,7.0,38321.0,40406.0,48.67580373,51.32419627,545.0,2.0,11.36458902,918.0,3.0,40.94402175,11.90442923,11.95523772,12.99300113,10.83872115,7.5082246239999995,3.856364398,"12,505",16.6,2066,7,"44,811",904,3,,28.0,0.0,1761.0,7.0,1.0,1.0,White,Arkansas,29.0,0.0,1697.0,7.0,1.0,1.0,35.320209999999996,-91.53608
5147,0,6824.0,1434.25,4.76,466.0,2.0,573.0,2.0,3121.0,3369.0,48.08936826,51.91063174,235.0,1.0,15.50077042,2466.0,8.0,34.54545455,9.845916795,11.84899846,13.8366718,14.42218798,10.0,5.500770416,"1,509",23.7,2821,10,"34,306",120,1,,1.0,0.0,1.0,1.0,1.0,1.0,Woodruff,Arkansas,1.0,0.0,1.0,1.0,1.0,1.0,35.2454,-91.35116
5149,1,22176.0,2488.26,8.91,1399.0,5.0,916.0,3.0,10811.0,10724.0,50.20199675,49.79800325,2092.0,7.0,12.296261900000001,1311.0,5.0,38.53262131,11.19108428,12.47271883,13.74506617,11.7622475,7.731599721,4.564662178,"3,453",16.3,2015,7,"41,729",588,2,,1.0,0.0,1.0,1.0,1.0,1.0,Yell,Arkansas,2.0,0.0,250.0,1.0,1.0,1.0,35.13524,-93.4137
6001,9,1649339.0,2141.18,770.29,3081.0,10.0,3042.0,10.0,820045.0,846708.0,49.20015143,50.79984857,990.0,4.0,9.139626567999999,317.0,2.0,37.08287911,16.54534295,13.93121836,12.8628537,10.43807931,5.7661813120000005,3.373445256,"147,394",9.0,366,2,"101,744",3081,10,17.00%,827.0,21.0,2525.0,10.0,2506.0,10.0,Alameda,California,1135.0,41.0,2620.0,10.0,2625.0,10.0,37.77516,-122.2748
6003,8,1120.0,584.78,1.92,44.0,1.0,299.0,1.0,588.0,513.0,53.40599455,46.59400545,2920.0,10.0,14.98637602,2318.0,8.0,30.33605813,8.174386921,9.990917348,16.71207993,19.80018165,10.35422343,4.6321525889999995,190,17.3,2173,7,"55,384",2074,7,,2.0,0.0,291.0,2.0,1.0,1.0,Alpine,California,1.0,0.0,1.0,1.0,1.0,1.0,38.69153,-120.06182
6005,9,37903.0,1215.18,31.19,1887.0,7.0,2046.0,7.0,21425.0,17958.0,54.40164538,45.59835462,2981.0,10.0,18.13218902,2866.0,10.0,26.20927811,11.41609324,12.07119823,14.82111571,17.35012569,12.36066323,5.771525785,"4,130",11.8,982,4,"58,515",2328,8,,6.0,0.0,888.0,4.0,1.0,1.0,Amador,California,6.0,0.0,808.0,3.0,1.0,1.0,38.42593,-120.82498000000001
6007,8,227719.0,4312.88,52.8,2811.0,10.0,2393.0,8.0,114342.0,116914.0,49.44390632,50.55609368,1266.0,5.0,12.38627322,1350.0,5.0,41.52324696,11.67321064,10.22935621,11.47991836,12.7079946,7.8493098560000005,4.536963365,"42,016",18.5,2352,8,"50,945",1606,6,,14.0,0.0,1418.0,6.0,1.0,1.0,Butte,California,16.0,0.0,1365.0,6.0,1.0,1.0,39.41,-121.36326000000001
6009,9,45257.0,2404.71,18.82,2055.0,7.0,1591.0,6.0,22697.0,22905.0,49.77193983,50.22806017,1656.0,6.0,18.4882242,2898.0,10.0,27.75536161,9.94254638,9.854830928,15.03442831,18.92460857,12.78452699,5.703697206,"5,454",12.1,1055,4,"62,984",2597,9,,8.0,0.0,1074.0,5.0,1.0,1.0,Calaveras,California,12.0,0.0,1188.0,5.0,1.0,1.0,38.06467,-120.62048
6011,7,21681.0,2763.71,7.84,1372.0,5.0,837.0,3.0,11046.0,10581.0,51.07504508,48.92495492,2550.0,9.0,9.88116706,467.0,2.0,43.29310584,12.98377029,11.453275999999999,11.88791788,10.50076294,6.413279697,3.467887363,"2,350",11.0,797,3,"57,249",2232,8,,3.0,0.0,483.0,2.0,1.0,1.0,Colusa,California,3.0,0.0,424.0,2.0,1.0,1.0,39.01641,-122.06187
6013,9,1127527.0,1604.09,702.91,3063.0,10.0,3033.0,10.0,562483.0,587732.0,48.90242259,51.09757741,718.0,3.0,10.63122981,680.0,3.0,37.02464322,13.29221059,13.67013993,13.9995566,11.38221985,6.835852428,3.795377386,"88,980",7.8,202,1,"101,463",3079,10,12.00%,530.0,11.0,2494.0,10.0,2423.0,10.0,Contra Costa,California,685.0,19.0,2585.0,10.0,2535.0,10.0,37.86762,-121.58632
6015,8,27424.0,1087.15,25.23,1595.0,6.0,1868.0,7.0,15188.0,12640.0,54.57812275,45.42187725,2988.0,10.0,11.72919362,1045.0,4.0,35.55771166,14.60399598,11.63216904,12.86833405,13.60859566,7.794307891,3.9348857269999997,"5,065",20.4,2569,9,"48,518",1331,5,,2.0,0.0,291.0,2.0,1.0,1.0,Del Norte,California,2.0,0.0,250.0,1.0,1.0,1.0,41.79625,-124.00515
6017,9,186585.0,3075.7,60.66,2758.0,9.0,2463.0,8.0,95091.0,95587.0,49.869937799999995,50.130062200000005,1778.0,6.0,13.73991756,1893.0,7.0,31.97851876,10.85442474,11.90698455,15.579143900000002,15.9410105,9.272176129,4.467741428,"15,401",8.1,238,1,"81,869",2975,10,,32.0,0.0,1828.0,7.0,1.0,1.0,El Dorado,California,36.0,0.0,1801.0,7.0,1.0,1.0,38.883759999999995,-120.98286999999999
6019,7,982538.0,10332.18,95.09,3055.0,10.0,2636.0,9.0,496016.0,498384.0,49.88093323,50.11906677,1792.0,6.0,8.190265487000001,176.0,1.0,46.29273934,13.99215607,11.50281577,11.02323009,8.998793242,5.189058729,3.001206758,"208,627",21.3,2651,9,"52,318",1777,6,,201.0,5.0,2360.0,10.0,2293.0,9.0,Fresno,California,315.0,7.0,2480.0,10.0,2358.0,9.0,36.19943,-120.42308
6021,8,28078.0,2779.78,10.1,1616.0,6.0,1024.0,4.0,14235.0,13812.0,50.75409135,49.24590865,2438.0,8.0,10.79972903,733.0,3.0,42.25763896,12.39348237,10.88173423,12.36852426,11.29889115,6.931222591,3.868506436,"4,271",15.4,1827,6,"47,365",1188,4,,3.0,0.0,483.0,2.0,1.0,1.0,Glenn,California,4.0,0.0,572.0,3.0,1.0,1.0,39.46072,-121.93701999999999
6023,8,135867.0,5784.54,23.49,2635.0,9.0,1796.0,6.0,67913.0,68460.0,49.7994471,50.2005529,1688.0,6.0,11.23242871,871.0,3.0,39.04585218,13.03410499,11.57853827,11.62766823,13.48140761,7.485352672,3.7470760339999996,"27,002",20.3,2552,9,"49,471",1440,5,,50.0,0.0,1998.0,8.0,1.0,1.0,Humboldt,California,52.0,0.0,1966.0,8.0,1.0,1.0,40.79809,-124.15097
6025,7,175888.0,7102.05,24.77,2738.0,9.0,1848.0,6.0,93235.0,88592.0,51.27676308,48.72323692,2625.0,9.0,8.935966606000001,283.0,1.0,46.39849967,13.58324121,11.18095772,10.88562205,9.015712738,5.50083321,3.4351333960000003,"37,014",21.4,2664,9,"46,633",1097,4,,87.0,2.0,2177.0,9.0,1990.0,8.0,Imperial,California,155.0,2.0,2326.0,9.0,1910.0,8.0,32.78583,-114.54552
6027,8,19498.0,8529.64,2.29,1278.0,5.0,343.0,2.0,9044.0,8943.0,50.28075833,49.71924167,2144.0,7.0,16.089397899999998,2586.0,9.0,32.03424696,12.08094735,10.45199311,13.64874632,15.69466837,9.634736197999999,6.4546617,"2,172",12.3,1098,4,"53,793",1919,7,,12.0,0.0,1319.0,6.0,1.0,1.0,Inyo,California,18.0,0.0,1431.0,6.0,1.0,1.0,36.529,-116.87036
6029,7,884760.0,14568.38,60.73,3042.0,10.0,2465.0,8.0,459690.0,437074.0,51.26097836,48.73902164,2622.0,9.0,7.194200481,73.0,1.0,47.19179182,14.18043097,11.67386291,11.09801464,8.661699176,4.827803079,2.366397402,"177,021",20.5,2584,9,"51,586",1694,6,,369.0,3.0,2458.0,10.0,2157.0,9.0,Kern,California,619.0,3.0,2576.0,10.0,2098.0,8.0,35.11188,-118.83076000000001
6031,7,148456.0,1665.67,89.13,2669.0,9.0,2614.0,9.0,83196.0,68170.0,54.96346604,45.03653396,3002.0,10.0,6.89058309,52.0,1.0,46.91212029,15.48101952,12.32773542,10.72367639,7.664865292999999,4.382754383,2.507828707,"25,481",18.8,2386,8,"58,255",2308,8,,10.0,1.0,1204.0,5.0,1619.0,7.0,Kings,California,28.0,1.0,1682.0,7.0,1519.0,6.0,36.313359999999996,-119.70856
6033,7,64014.0,2012.48,31.81,2284.0,8.0,2070.0,7.0,32140.0,32242.0,49.92078531,50.07921469,1829.0,6.0,15.05389705,2336.0,8.0,33.239104100000006,11.17859029,10.60700196,13.86722997,16.05417663,10.35693206,4.69696499,"11,689",18.4,2336,8,"45,086",932,3,,4.0,0.0,662.0,3.0,1.0,1.0,Lake,California,6.0,0.0,808.0,3.0,1.0,1.0,38.9763,-122.62313
6035,8,32000.0,4607.86,6.94,1726.0,6.0,755.0,3.0,19155.0,11647.0,62.18752029,37.81247971,3092.0,10.0,9.850009738999999,463.0,2.0,36.69891565,16.4502305,13.62249205,12.11609636,11.262255699999999,6.483345237000001,3.366664502,"3,653",15.8,1915,7,"57,705",2271,8,,,,,,,,,,,,,,,,41.06347,-121.04101999999999
6037,8,10091497.0,9411.8,1072.22,3100.0,11.0,3063.0,10.0,4981895.0,5123623.0,49.29875935,50.70124065,1099.0,4.0,9.191067692,330.0,2.0,39.6265189,14.86162313,13.35979017,12.9236621,10.03733802,5.665518581000001,3.525549111,"1,409,155",14.2,1555,6,"67,986",2779,9,10.60%,8873.0,265.0,2609.0,10.0,2606.0,10.0,Los Angeles,California,12021.0,576.0,2707.0,10.0,2706.0,10.0,33.97397,-118.24953000000001
6037,8,10091497.0,9411.8,1072.22,3100.0,11.0,3063.0,10.0,4981895.0,5123623.0,49.29875935,50.70124065,1099.0,4.0,9.191067692,330.0,2.0,39.6265189,14.86162313,13.35979017,12.9236621,10.03733802,5.665518581000001,3.525549111,"1,409,155",14.2,1555,6,"67,986",2779,9,10.60%,8873.0,265.0,2609.0,10.0,2606.0,10.0,Los Angeles,California,12021.0,576.0,2707.0,10.0,2706.0,10.0,33.97397,-118.24953000000001
6037,8,10091497.0,9411.8,1072.22,3100.0,11.0,3063.0,10.0,4981895.0,5123623.0,49.29875935,50.70124065,1099.0,4.0,9.191067692,330.0,2.0,39.6265189,14.86162313,13.35979017,12.9236621,10.03733802,5.665518581000001,3.525549111,"1,409,155",14.2,1555,6,"67,986",2779,9,10.60%,8873.0,265.0,2609.0,10.0,2606.0,10.0,Los Angeles,California,12021.0,576.0,2707.0,10.0,2706.0,10.0,33.97397,-118.24953000000001
6037,8,10091497.0,9411.8,1072.22,3100.0,11.0,3063.0,10.0,4981895.0,5123623.0,49.29875935,50.70124065,1099.0,4.0,9.191067692,330.0,2.0,39.6265189,14.86162313,13.35979017,12.9236621,10.03733802,5.665518581000001,3.525549111,"1,409,155",14.2,1555,6,"67,986",2779,9,10.60%,8873.0,265.0,2609.0,10.0,2606.0,10.0,Los Angeles,California,12021.0,576.0,2707.0,10.0,2706.0,10.0,33.97397,-118.24953000000001
6037,8,10091497.0,9411.8,1072.22,3100.0,11.0,3063.0,10.0,4981895.0,5123623.0,49.29875935,50.70124065,1099.0,4.0,9.191067692,330.0,2.0,39.6265189,14.86162313,13.35979017,12.9236621,10.03733802,5.665518581000001,3.525549111,"1,409,155",14.2,1555,6,"67,986",2779,9,10.60%,8873.0,265.0,2609.0,10.0,2606.0,10.0,Los Angeles,California,12021.0,576.0,2707.0,10.0,2706.0,10.0,33.97397,-118.24953000000001
6037,8,10091497.0,9411.8,1072.22,3100.0,11.0,3063.0,10.0,4981895.0,5123623.0,49.29875935,50.70124065,1099.0,4.0,9.191067692,330.0,2.0,39.6265189,14.86162313,13.35979017,12.9236621,10.03733802,5.665518581000001,3.525549111,"1,409,155",14.2,1555,6,"67,986",2779,9,10.60%,8873.0,265.0,2609.0,10.0,2606.0,10.0,Los Angeles,California,12021.0,576.0,2707.0,10.0,2706.0,10.0,33.97397,-118.24953000000001
6037,8,10091497.0,9411.8,1072.22,3100.0,11.0,3063.0,10.0,4981895.0,5123623.0,49.29875935,50.70124065,1099.0,4.0,9.191067692,330.0,2.0,39.6265189,14.86162313,13.35979017,12.9236621,10.03733802,5.665518581000001,3.525549111,"1,409,155",14.2,1555,6,"67,986",2779,9,10.60%,8873.0,265.0,2609.0,10.0,2606.0,10.0,Los Angeles,California,12021.0,576.0,2707.0,10.0,2706.0,10.0,33.97397,-118.24953000000001
6037,8,10091497.0,9411.8,1072.22,3100.0,11.0,3063.0,10.0,4981895.0,5123623.0,49.29875935,50.70124065,1099.0,4.0,9.191067692,330.0,2.0,39.6265189,14.86162313,13.35979017,12.9236621,10.03733802,5.665518581000001,3.525549111,"1,409,155",14.2,1555,6,"67,986",2779,9,10.60%,8873.0,265.0,2609.0,10.0,2606.0,10.0,Los Angeles,California,12021.0,576.0,2707.0,10.0,2706.0,10.0,33.97397,-118.24953000000001
6039,7,154435.0,4378.79,35.27,2681.0,9.0,2141.0,7.0,76008.0,81664.0,48.20640317,51.79359683,286.0,1.0,9.213430412000001,338.0,2.0,44.2526257,13.26678167,11.85435588,11.27276879,10.14003755,6.1786493479999995,3.0347810639999997,"30,201",20.2,2541,9,"53,632",1903,7,,32.0,2.0,1828.0,7.0,1990.0,8.0,Madera,California,34.0,2.0,1772.0,7.0,1910.0,8.0,37.39375,-119.74444
6041,9,259349.0,1033.09,251.04,2840.0,10.0,2908.0,10.0,126989.0,132677.0,48.90474687,51.09525313,724.0,3.0,15.35896113,2425.0,8.0,30.68480279,10.04097571,13.93520908,15.56653547,14.41351582,9.902721188,5.456239939,"16,742",6.6,92,1,"122,933",3104,10,,153.0,10.0,2312.0,9.0,2409.0,10.0,Marin,California,189.0,10.0,2378.0,9.0,2436.0,9.0,37.98,-122.50282
6043,8,16038.0,2703.08,5.93,1096.0,4.0,665.0,3.0,8904.0,8567.0,50.96445538,49.03554462,2510.0,9.0,19.07160437,2943.0,10.0,28.06364833,10.11390304,9.461393166,14.84746151,18.44198958,12.65525728,6.416347088999999,"2,569",14.9,1712,6,"51,402",1673,6,,,,,,,,,,,,,,,,37.49377,-119.64268999999999
6045,8,87095.0,6921.23,12.58,2443.0,8.0,1206.0,4.0,43403.0,44203.0,49.54341027,50.45658973,1407.0,5.0,14.27870237,2102.0,7.0,34.26249344,11.82453257,11.65102847,12.5345296,15.44871356,9.818962172,4.459740200000001,"15,140",17.5,2204,8,"51,386",1667,6,,4.0,0.0,662.0,3.0,1.0,1.0,Mendocino,California,5.0,0.0,704.0,3.0,1.0,1.0,39.20802,-123.68668999999998
6047,7,267918.0,3909.2,68.54,2847.0,10.0,2508.0,9.0,138632.0,136133.0,50.45475224,49.54524776,2264.0,8.0,7.542081415,100.0,1.0,48.30236748,13.39690281,11.52730515,10.84381198,8.387531163,4.867432169,2.674649246,"56,863",21.2,2643,9,"56,169",2136,7,,64.0,3.0,2071.0,8.0,2157.0,9.0,Merced,California,87.0,3.0,2154.0,8.0,2098.0,8.0,37.024879999999996,-120.62881999999999
6049,7,9754.0,5728.79,1.7,686.0,3.0,266.0,1.0,4386.0,4391.0,49.97151646,50.02848354,1884.0,7.0,18.27503703,2880.0,10.0,30.59131822,10.23128632,10.34522046,13.23914777,17.3179902,12.47578899,5.799248035,"1,631",19.1,2424,8,"45,227",946,4,,,,,,,,,,,,,,,,41.17426,-120.85292
6051,9,12616.0,2918.3,4.32,892.0,3.0,533.0,2.0,7571.0,6679.0,53.12982456,46.87017544,2901.0,10.0,9.501754386,397.0,2.0,34.59649123,14.28070175,12.75789474,14.72982456,14.13333333,6.673684211,2.828070175,"1,312",9.3,437,2,"66,499",2732,9,,21.0,1.0,1621.0,7.0,1619.0,7.0,Mono,California,23.0,1.0,1574.0,6.0,1519.0,6.0,37.89261,-118.56461999999999
6053,8,418831.0,7247.74,57.79,2935.0,10.0,2441.0,8.0,221787.0,213807.0,50.91599058,49.08400942,2495.0,9.0,9.054762002999999,301.0,1.0,43.26643618,13.95909953,12.23937887,11.53941514,9.940908277,5.6208304060000005,3.433931597,"55,614",13.3,1350,5,"69,665",2823,10,,82.0,3.0,2157.0,9.0,2157.0,9.0,Monterey,California,136.0,3.0,2287.0,9.0,2098.0,8.0,35.84641,-120.94131999999999
6055,9,141285.0,2149.42,65.73,2647.0,9.0,2499.0,9.0,69392.0,70025.0,49.77298321,50.22701679,1657.0,6.0,13.11604754,1634.0,6.0,35.34576128,12.49919307,12.79184031,13.61455203,12.63260578,8.196274486,4.919773055,"11,829",8.8,336,2,"85,624",3006,10,,35.0,2.0,1867.0,8.0,1990.0,8.0,Napa,California,47.0,2.0,1922.0,8.0,1910.0,8.0,38.18419,-122.26293999999999
6057,9,94905.0,1886.05,50.32,2484.0,9.0,2359.0,8.0,48920.0,50776.0,49.06917028,50.93082972,859.0,3.0,18.03984112,2855.0,10.0,27.67412935,10.83694431,10.78077355,13.95943669,18.70887498,12.17701814,5.862822982000001,"10,171",10.3,635,3,"66,681",2737,9,,34.0,1.0,1852.0,8.0,1619.0,7.0,Nevada,California,36.0,1.0,1801.0,7.0,1519.0,6.0,39.19509,-120.977
6059,9,3170514.0,2029.8,1561.98,3095.0,10.0,3079.0,10.0,1572801.0,1613167.0,49.36650337,50.63349663,1179.0,4.0,10.1091097,522.0,2.0,38.74530441,13.41764889,13.37835157,13.80415623,10.54542921,6.3214696439999996,3.787640052,"330,559",10.5,689,3,"89,373",3037,10,,1221.0,18.0,2553.0,10.0,2488.0,10.0,Orange,California,1556.0,32.0,2641.0,10.0,2599.0,10.0,33.846109999999996,-118.01168999999999
6061,9,383630.0,2151.29,178.33,2920.0,10.0,2840.0,10.0,192147.0,201002.0,48.87383664,51.12616336,693.0,3.0,13.61824652,1837.0,6.0,34.95494075,12.26710484,13.17388573,13.56966443,12.41615774,8.770211802999999,4.848034715,"27,596",7.1,135,1,"89,175",3035,10,,124.0,4.0,2267.0,9.0,2247.0,9.0,Placer,California,131.0,8.0,2274.0,9.0,2385.0,9.0,38.990590000000005,-121.11038
6063,8,17085.0,2383.66,7.17,1162.0,4.0,778.0,3.0,9360.0,9444.0,49.77664327,50.22335673,1661.0,6.0,18.49606466,2901.0,10.0,27.65900872,10.14145926,9.205488193999999,14.37460115,20.123378,13.11423101,5.381833652,"2,317",12.5,1152,4,"55,079",2041,7,,4.0,0.0,662.0,3.0,1.0,1.0,Plumas,California,4.0,0.0,572.0,3.0,1.0,1.0,39.97548,-121.20865
6065,8,2385120.0,9300.13,256.46,3091.0,10.0,2916.0,10.0,1221375.0,1229383.0,49.83662198,50.16337802,1730.0,6.0,9.955572927999999,486.0,2.0,42.07820601,13.42148021,12.46100186,12.2278087,9.855930288,6.403284208,3.55228872,"307,511",12.7,1205,4,"66,793",2740,9,,1431.0,41.0,2558.0,10.0,2555.0,10.0,Riverside,California,2602.0,74.0,2672.0,10.0,2654.0,10.0,33.995740000000005,-117.53398999999999
6067,8,1512008.0,2753.5,549.12,3077.0,10.0,3005.0,10.0,752972.0,788003.0,48.8633495,51.1366505,685.0,3.0,9.356154382,368.0,2.0,40.18579146,14.81224549,12.48313568,12.60636934,10.55630364,5.948441732999999,3.4077126489999996,"217,138",14.3,1578,6,"69,475",2818,10,,699.0,26.0,2515.0,10.0,2531.0,10.0,Sacramento,California,914.0,33.0,2604.0,10.0,2603.0,10.0,38.62585,-121.32828
6069,8,58043.0,4062.27,14.29,2229.0,8.0,1318.0,5.0,30843.0,30694.0,50.12106538,49.87893462,2034.0,7.0,8.401449535,203.0,1.0,41.8187432,13.75270163,12.73867754,13.179063000000001,10.1093651,5.442254254,2.9591952810000004,"5,294",8.6,304,1,"80,063",2958,10,,35.0,2.0,1867.0,8.0,1990.0,8.0,San Benito,California,44.0,2.0,1896.0,7.0,1910.0,8.0,36.89992,-121.35126000000001
6071,7,2131624.0,13562.72,157.17,3087.0,10.0,2810.0,10.0,1080950.0,1090653.0,49.7765936,50.2234064,1660.0,6.0,7.50035803,96.0,1.0,44.80109854,13.92703915,12.34111391,12.0763786,9.35401176,4.976416039,2.523941991,"317,514",14.9,1712,6,"63,310",2609,9,,810.0,25.0,2524.0,10.0,2526.0,10.0,San Bernardino,California,1219.0,57.0,2626.0,10.0,2639.0,10.0,34.13762,-117.59998
6073,9,3297495.0,8076.28,408.29,3096.0,10.0,2977.0,10.0,1682449.0,1660915.0,50.32204091,49.67795909,2168.0,7.0,9.45436991,388.0,2.0,40.42524236,15.09569404,12.49409278,12.32459284,10.20600808,5.911889941,3.542479969,"372,148",11.5,921,3,"78,777",2945,10,,1761.0,45.0,2573.0,10.0,2561.0,10.0,San Diego,California,2213.0,71.0,2664.0,10.0,2650.0,10.0,32.8064,-116.71229
6075,9,870044.0,130.37,6673.44,3040.0,10.0,3095.0,10.0,450363.0,432942.0,50.98612597,49.01387403,2521.0,9.0,10.63154856,682.0,3.0,32.16374865,20.76089233,13.67828779,12.15831451,10.60720816,6.181330345,4.450218215,"87,596",10.1,588,2,"110,601",3093,10,33.10%,860.0,13.0,2529.0,10.0,2447.0,10.0,San Francisco,California,1140.0,20.0,2621.0,10.0,2539.0,10.0,37.7797,-122.41923999999999
6077,7,730666.0,3936.6,185.61,3015.0,10.0,2848.0,10.0,375136.0,377524.0,49.84136263,50.15863737,1734.0,6.0,8.487364813,216.0,1.0,44.01682034,13.57850822,12.41450323,11.97273669,9.530066697,5.508861903,2.97850291,"105,351",14.3,1578,6,"63,567",2620,9,,260.0,15.0,2410.0,10.0,2466.0,10.0,San Joaquin,California,410.0,17.0,2522.0,10.0,2517.0,10.0,37.95945,-121.28753
6079,9,279837.0,7773.41,36.0,2858.0,10.0,2154.0,7.0,144092.0,139918.0,50.73483328,49.26516672,2422.0,8.0,13.36044505,1735.0,6.0,38.67187775,11.52776311,10.47216647,12.1481638,13.81958382,8.614485405,4.745959649,"34,200",12.7,1205,4,"70,626",2836,10,,110.0,1.0,2241.0,9.0,1619.0,7.0,San Luis Obispo,California,131.0,1.0,2274.0,9.0,1519.0,6.0,35.24175,-120.61711000000001
6081,9,784432.0,1110.74,706.23,3020.0,10.0,3035.0,10.0,380308.0,389237.0,49.41985199,50.58014801,1233.0,4.0,10.98402303,783.0,3.0,35.13907569,15.14986128,13.88872646,13.5875095,11.25080405,6.706430423,4.277592603,"51,830",6.8,106,1,"122,930",3103,10,19.80%,652.0,21.0,2507.0,10.0,2506.0,10.0,San Mateo,California,838.0,28.0,2598.0,10.0,2581.0,10.0,37.5135,-122.29905
6083,9,444292.0,4545.52,97.74,2947.0,10.0,2647.0,9.0,223377.0,223150.0,50.0254184,49.9745816,1944.0,7.0,10.61122844,674.0,3.0,45.22705234,12.0342107,10.69297041,11.23649858,10.19803954,6.351911531,4.2593169060000005,"54,029",12.6,1178,4,"75,646",2911,10,,264.0,2.0,2412.0,10.0,1990.0,8.0,Santa Barbara,California,385.0,4.0,2510.0,10.0,2190.0,9.0,34.44012,-119.49415
6085,9,1899127.0,2775.8,684.17,3083.0,10.0,3029.0,10.0,980868.0,956702.0,50.62361618,49.37638382,2369.0,8.0,9.237137237999999,344.0,2.0,38.54374294,15.59608169,13.94339301,13.0460835,9.633561626,5.673085359,3.564051879,"139,074",7.3,151,1,"125,933",3106,10,,1566.0,52.0,2566.0,10.0,2570.0,10.0,Santa Clara,California,1870.0,74.0,2653.0,10.0,2654.0,10.0,37.35753,-122.14445
6087,9,293730.0,1375.86,213.49,2867.0,10.0,2878.0,10.0,135725.0,138530.0,49.48861461,50.51138539,1320.0,5.0,10.32105158,586.0,2.0,40.68622268,11.55493975,11.77444349,12.79320341,12.870139100000001,6.928223732999999,3.392827843,"32,027",12.2,1077,4,"84,213",2997,10,,82.0,1.0,2157.0,9.0,1619.0,7.0,Santa Cruz,California,101.0,2.0,2200.0,9.0,1910.0,8.0,37.01015,-121.87763000000001
6089,8,169610.0,7302.07,23.23,2728.0,9.0,1790.0,6.0,88367.0,91673.0,49.0818707,50.9181293,877.0,3.0,14.14463453,2063.0,7.0,35.57709398,12.378915800000001,10.54765608,13.2831593,14.06854032,9.340702066,4.803932458999999,"26,919",15.2,1778,6,"53,908",1943,7,,24.0,3.0,1692.0,7.0,2157.0,9.0,Shasta,California,26.0,3.0,1643.0,7.0,2098.0,8.0,40.59649,-122.46005
6091,8,2726.0,1308.63,2.08,152.0,1.0,319.0,2.0,1511.0,1476.0,50.58587211,49.41412789,2346.0,8.0,20.02008704,3000.0,10.0,25.27619685,8.771342484,9.943086709,14.99832608,20.99096083,13.82658185,6.193505189,392,13.3,1350,5,"52,308",1774,6,,,,,,,,,,,,,,,,39.47444,-120.82258
6093,7,44451.0,13216.66,3.36,2036.0,7.0,451.0,2.0,21731.0,21993.0,49.70039338,50.29960662,1576.0,6.0,16.81227701,2706.0,9.0,32.02131552,10.64175281,9.996798097000001,12.86021407,17.66764248,11.53371146,5.278565548,"7,396",17.1,2144,7,"47,560",1214,4,,5.0,0.0,798.0,4.0,1.0,1.0,Siskiyou,California,5.0,0.0,704.0,3.0,1.0,1.0,41.45328,-123.46342
6095,9,437280.0,2182.1,200.39,2943.0,10.0,2859.0,10.0,221997.0,224613.0,49.70712702,50.29287298,1584.0,6.0,10.29264907,579.0,2.0,38.35046237,13.90967511,12.02122657,13.43588366,11.99010322,6.79407089,3.4985781780000003,"34,281",7.9,217,1,"82,808",2986,10,,126.0,2.0,2268.0,9.0,1990.0,8.0,Solano,California,174.0,2.0,2354.0,9.0,1910.0,8.0,38.09407,-122.13216000000001
6097,9,501679.0,4485.89,111.83,2965.0,10.0,2690.0,9.0,244124.0,255818.0,48.83046433,51.16953567,659.0,3.0,12.97750539,1584.0,6.0,34.2103684,12.95110233,12.14360866,13.73859368,13.97882154,8.544391148999999,4.433114241,"48,846",9.9,547,2,"81,002",2970,10,,145.0,2.0,2299.0,9.0,1990.0,8.0,Sonoma,California,180.0,2.0,2365.0,9.0,1910.0,8.0,38.34186,-122.94951999999999
6099,7,541112.0,3953.46,136.87,2977.0,10.0,2758.0,9.0,272316.0,277499.0,49.52865964,50.47134036,1378.0,5.0,8.81896638,268.0,1.0,43.89221829,13.67823723,12.06005656,11.91237052,9.638151014,5.6537198879999995,3.165246492,"84,744",15.6,1880,7,"59,616",2399,8,,121.0,2.0,2263.0,9.0,1990.0,8.0,Stanislaus,California,221.0,4.0,2407.0,9.0,2190.0,9.0,37.55434,-120.95138999999999
6101,8,95222.0,1343.14,70.9,2486.0,9.0,2522.0,9.0,48222.0,48585.0,49.81251356,50.18748644,1702.0,6.0,10.852521000000001,747.0,3.0,41.9008956,13.05794002,11.60246676,12.2439493,10.34222732,6.727819268999999,4.1247017260000005,"13,011",13.5,1395,5,"57,879",2279,8,,22.0,2.0,1652.0,7.0,1990.0,8.0,Sutter,California,25.0,2.0,1621.0,6.0,1910.0,8.0,38.83995,-121.57133
6103,7,71111.0,3994.43,17.8,2353.0,8.0,1525.0,5.0,31743.0,32173.0,49.663621,50.336379,1542.0,5.0,13.33468928,1724.0,6.0,37.95293823,11.47130609,10.89867952,13.64603542,12.69635146,8.791225984,4.5434632960000005,"10,749",17.0,2133,7,"47,572",1216,4,,1.0,0.0,1.0,1.0,1.0,1.0,Tehama,California,1.0,0.0,1.0,1.0,1.0,1.0,39.92647,-122.26526000000001
6105,7,12995.0,6801.64,1.91,916.0,3.0,298.0,1.0,6442.0,6093.0,51.39210211,48.60789789,2659.0,9.0,17.423215,2784.0,9.0,26.94056641,10.00398883,10.42680495,15.04587156,20.15955325,12.12604707,5.29716793,"2,656",21.6,2677,9,"40,680",514,2,,,,,,,,,,,,,,,,40.85342,-123.43175
6107,7,456992.0,7806.84,58.54,2953.0,10.0,2448.0,8.0,233078.0,232783.0,50.031661799999995,49.968338200000005,1955.0,7.0,7.652282548,109.0,1.0,48.18304172,13.50338406,11.55924192,10.64952851,8.452521246,4.962853727,2.6894288210000004,"102,451",22.2,2723,9,"48,763",1363,5,,227.0,11.0,2382.0,10.0,2423.0,10.0,Tulare,California,397.0,17.0,2518.0,10.0,2517.0,10.0,35.8588,-119.48756999999999
6109,8,55161.0,1819.08,30.32,2201.0,8.0,2023.0,7.0,28296.0,26243.0,51.88213939,48.11786061,2765.0,9.0,17.71576303,2817.0,10.0,29.62833935,11.64121088,10.50807679,13.267570000000001,17.23903995,11.74572324,5.970039787999999,"6,417",12.5,1152,4,"56,500",2163,7,,1.0,0.0,1.0,1.0,1.0,1.0,Tuolumne,California,2.0,0.0,250.0,1.0,1.0,1.0,37.80468,-120.27191
6111,9,852908.0,3169.18,269.13,3036.0,10.0,2923.0,10.0,421319.0,429648.0,49.51061557,50.48938443,1346.0,5.0,10.55105545,652.0,3.0,39.18166039,12.82587926,12.57534076,13.62097473,11.24508941,6.6635956510000005,3.8874597960000004,"76,206",9.1,387,2,"84,170",2996,10,,309.0,10.0,2429.0,10.0,2409.0,10.0,Ventura,California,416.0,13.0,2526.0,10.0,2481.0,10.0,34.175979999999996,-118.94503999999999
6113,9,216777.0,2733.36,79.31,2802.0,10.0,2575.0,9.0,106746.0,113662.0,48.43109143,51.56890857,408.0,2.0,8.399876592,202.0,1.0,48.58671192,12.47912961,10.85260063,10.63119306,9.050488186,5.297448368,3.1024282239999996,"42,311",20.1,2533,9,"67,804",2776,9,,88.0,3.0,2180.0,9.0,2157.0,9.0,Yolo,California,137.0,8.0,2293.0,9.0,2385.0,9.0,38.592940000000006,-121.53916000000001
6115,7,75177.0,1567.12,47.97,2373.0,8.0,2339.0,8.0,39503.0,38538.0,50.61826476,49.38173524,2366.0,8.0,8.168783076,168.0,1.0,45.07630604,14.642303400000001,10.8378929,11.23896413,10.03575044,5.553491114,2.6152919619999997,"13,256",17.2,2159,7,"47,504",1207,4,,15.0,1.0,1460.0,6.0,1619.0,7.0,Yuba,California,16.0,1.0,1365.0,6.0,1519.0,6.0,39.04589,-121.40381000000001
8001,7,448604.0,1977.69,226.83,2949.0,10.0,2891.0,10.0,258470.0,253398.0,50.49544023,49.50455977,2286.0,8.0,6.656403603999999,44.0,1.0,43.22188533,16.25536271,13.34406527,11.73407988,8.788203209,4.4505614730000005,2.205842131,"46,711",9.2,408,2,"70,199",2832,10,,593.0,25.0,2503.0,10.0,2526.0,10.0,Adams,Colorado,894.0,33.0,2603.0,10.0,2603.0,10.0,39.78515,-104.70191
8003,7,16446.0,2158.39,7.62,1128.0,4.0,820.0,3.0,8361.0,8322.0,50.11688545,49.88311455,2032.0,7.0,8.943235629,286.0,1.0,49.00197806,12.21003417,9.476712821,10.52568483,9.842354493,5.8862314929999995,3.057004136,"2,954",19.1,2424,8,"42,897",709,3,,7.0,2.0,1000.0,4.0,1990.0,8.0,Alamosa,Colorado,7.0,2.0,898.0,4.0,1910.0,8.0,37.48369,-105.83006
8005,9,662150.0,3073.88,215.41,2999.0,10.0,2882.0,10.0,322713.0,328502.0,49.55552314,50.44447686,1414.0,5.0,8.316761746000001,188.0,1.0,39.58078361,15.41994579,13.60917669,12.50892562,10.56440653,5.565903734,2.7508580119999997,"52,474",8.1,238,1,"76,665",2930,10,,998.0,37.0,2538.0,10.0,2548.0,10.0,Arapahoe,Colorado,1498.0,62.0,2639.0,10.0,2643.0,10.0,39.73881,-104.86247
8007,8,12721.0,4375.0,2.91,901.0,3.0,409.0,2.0,6898.0,6867.0,50.11260443,49.88739557,2020.0,7.0,15.7137668,2507.0,9.0,28.12931348,10.57028696,10.67925899,14.94369778,19.96367599,11.790773699999999,3.922993098,"1,525",11.2,846,3,"53,337",1872,7,,6.0,0.0,888.0,4.0,1.0,1.0,Archuleta,Colorado,7.0,0.0,898.0,4.0,1.0,1.0,37.109809999999996,-107.43911999999999
8009,8,3579.0,6288.69,0.57,214.0,1.0,62.0,1.0,1800.0,1785.0,50.20920502,49.79079498,2099.0,7.0,18.13110181,2865.0,10.0,34.58856346,10.48814505,9.511854951,12.77545328,14.50488145,9.874476987000001,8.256624826,678,19.4,2457,8,"38,294",330,2,,10.0,0.0,1204.0,5.0,1.0,1.0,Baca,Colorado,10.0,0.0,1096.0,5.0,1.0,1.0,37.084959999999995,-102.48255
8011,7,5598.0,3238.49,1.73,365.0,2.0,275.0,1.0,3848.0,2034.0,65.4199252,34.5800748,3104.0,10.0,12.42774567,1373.0,5.0,33.11798708,15.07990479,14.85889153,12.63175791,11.88371302,7.820469227999999,4.6072764369999994,"1,353",33.9,3073,10,"37,659",279,1,,,,,,,,,,,,,,,,38.07927,-103.14041999999999
8013,9,335505.0,2243.72,149.53,2899.0,10.0,2794.0,10.0,164069.0,162009.0,50.31587534,49.68412466,2164.0,7.0,9.118370451,312.0,2.0,41.52135379,12.70002883,12.79939156,12.615386500000001,11.24546888,6.006538312999999,3.111832138,"30,699",9.7,506,2,"83,591",2992,10,,246.0,8.0,2399.0,10.0,2383.0,10.0,Boulder,Colorado,342.0,17.0,2493.0,10.0,2517.0,10.0,39.94508,-105.29063000000001
8014,9,71025.0,117.55,604.19,2351.0,8.0,3018.0,10.0,34441.0,34826.0,49.72208988,50.27791012,1603.0,6.0,9.216510027,340.0,2.0,38.51473285,14.61879394,15.02013946,12.45614795,10.17367578,6.041838105,3.174671922,"3,364",4.9,20,1,"96,924",3062,10,,74.0,2.0,2122.0,9.0,1990.0,8.0,Broomfield,Colorado,101.0,2.0,2200.0,9.0,1910.0,8.0,39.9318,-105.07453000000001
8015,9,19168.0,3171.22,6.04,1262.0,5.0,677.0,3.0,10582.0,9445.0,52.838667799999996,47.161332200000004,2882.0,10.0,16.40784941,2652.0,9.0,27.58276327,12.52808708,11.83901733,13.746442300000002,17.89584062,11.17990713,5.227942278,"2,023",10.9,775,3,"56,168",2135,7,,28.0,3.0,1761.0,7.0,2157.0,9.0,Chaffee,Colorado,37.0,4.0,1816.0,7.0,2190.0,9.0,38.56049,-106.0648
8017,8,2031.0,5758.75,0.35,99.0,1.0,30.0,1.0,954.0,922.0,50.85287846,49.14712154,2474.0,8.0,12.95309168,1574.0,6.0,36.94029851,11.94029851,9.648187633,13.85927505,14.65884861,7.356076759,5.597014925,230,12.6,1178,4,"54,504",2001,7,,,,,,,,,,,,,,,,38.842220000000005,-102.17356
8019,9,5520.0,743.64,7.42,359.0,2.0,805.0,3.0,5067.0,4538.0,52.75377408,47.24622592,2871.0,10.0,12.21238938,1269.0,5.0,25.94482041,12.55596044,14.20093701,17.02238417,18.06350859,9.318063509,2.894325872,686,7.2,146,1,"74,019",2891,10,,11.0,0.0,1268.0,5.0,1.0,1.0,Clear Creek,Colorado,11.0,0.0,1147.0,5.0,1.0,1.0,39.78752,-105.64738999999999
8021,7,8250.0,3516.99,2.35,579.0,2.0,348.0,2.0,4117.0,4083.0,50.20731707,49.79268293,2097.0,7.0,12.98780488,1591.0,6.0,40.06097561,11.17073171,10.24390244,12.25609756,13.2804878,8.536585366,4.451219512,"1,747",21.4,2664,9,"38,777",363,2,,,,,,,,,,,,,,,,37.164229999999996,-106.27832
8023,7,3558.0,3112.77,1.14,212.0,1.0,174.0,1.0,1982.0,1846.0,51.77638454,48.22361546,2746.0,9.0,18.93939394,2932.0,10.0,30.32915361,9.587251829,8.803552769,13.84535005,18.49529781,12.90491118,6.034482758999999,964,25.2,2897,10,"31,557",46,1,,3.0,0.0,483.0,2.0,1.0,1.0,Costilla,Colorado,3.0,0.0,424.0,2.0,1.0,1.0,37.3986,-105.56976999999999
8025,7,5598.0,2734.18,2.05,365.0,2.0,315.0,2.0,4286.0,1572.0,73.1649027,26.8350973,3109.0,11.0,9.303516559,361.0,2.0,32.58791396,18.743598499999997,17.19016729,12.7005804,9.474223283999999,6.094230112999999,3.209286446,"1,341",44.3,3104,10,"35,880",173,1,,2.0,1.0,291.0,2.0,1619.0,7.0,Crowley,Colorado,2.0,1.0,250.0,1.0,1519.0,6.0,38.19488,-103.86133000000001
8027,8,4448.0,2038.75,2.18,279.0,1.0,328.0,2.0,2555.0,2399.0,51.57448526,48.42551474,2706.0,9.0,18.49010901,2899.0,10.0,22.62817925,7.731126363,8.942268874,15.68429552,26.52402099,14.08962455,4.400484457,576,12.0,1023,4,"55,242",2055,7,,2.0,0.0,291.0,2.0,1.0,1.0,Custer,Colorado,2.0,0.0,250.0,1.0,1.0,1.0,38.10886,-105.42017
8029,7,31110.0,3232.77,9.62,1697.0,6.0,985.0,4.0,15501.0,15452.0,50.07915226,49.92084774,1993.0,7.0,17.50395762,2794.0,9.0,31.38952606,10.27687139,10.34148548,13.28142668,17.20673279,11.51746196,5.986495655,"4,429",14.6,1654,6,"46,786",1116,4,,6.0,1.0,888.0,4.0,1619.0,7.0,Delta,Colorado,19.0,1.0,1457.0,6.0,1519.0,6.0,38.801359999999995,-107.96763999999999
8031,8,668026.0,483.55,1381.51,3001.0,10.0,3076.0,10.0,359590.0,356902.0,50.187580600000004,49.812419399999996,2077.0,7.0,7.606784165,106.0,1.0,39.41984,20.43679483,13.30887156,10.31330427,8.914405185,4.86397615,2.742808015,"82,104",11.7,959,4,"68,069",2782,9,,1182.0,46.0,2551.0,10.0,2563.0,10.0,Denver,Colorado,1723.0,74.0,2650.0,10.0,2654.0,10.0,39.75193,-104.99776000000001
8033,8,1650.0,1321.96,1.25,73.0,1.0,194.0,1.0,1090.0,984.0,52.55544841,47.44455159,2859.0,10.0,17.21311476,2753.0,9.0,29.79749277,9.691417551,11.62005786,14.41658631,17.26133076,11.8611379,5.351976856,265,12.8,1234,4,"47,482",1202,4,,,,,,,,,,,,,,,,37.72182,-108.73343
8035,9,329873.0,2456.05,134.31,2893.0,10.0,2754.0,9.0,171127.0,171649.0,49.92385698,50.07614302,1832.0,6.0,7.534366467000001,98.0,1.0,38.67657012,13.26522277,16.07930544,14.47825985,9.966275352,5.343431279,2.190935188,"8,975",2.6,1,1,"120,670",3100,10,,292.0,10.0,2422.0,10.0,2409.0,10.0,Douglas,Colorado,360.0,15.0,2501.0,10.0,2502.0,10.0,39.30196,-104.81809
8037,9,51494.0,6183.31,8.33,2161.0,7.0,870.0,3.0,29160.0,25833.0,53.02493045,46.97506955,2895.0,10.0,6.6481188520000005,43.0,1.0,37.06289891,16.05113378,15.47651519,13.66173877,11.09959449,5.1679304639999994,1.4801883880000002,"3,673",6.7,97,1,"86,896",3017,10,,433.0,5.0,2473.0,10.0,2293.0,9.0,Eagle,Colorado,483.0,6.0,2543.0,10.0,2314.0,9.0,39.89447,-106.59508999999998
8039,9,17413.0,2788.95,6.24,1184.0,4.0,692.0,3.0,13278.0,13004.0,50.52126931,49.47873069,2303.0,8.0,9.61494559,417.0,2.0,33.04162545,10.19709307,13.10783045,18.30149912,15.73700632,7.252111711,2.362833879,"1,312",5.0,23,1,"98,247",3066,10,,14.0,1.0,1418.0,6.0,1619.0,7.0,Elbert,Colorado,23.0,1.0,1574.0,6.0,1519.0,6.0,39.39269,-104.02855
8041,8,690243.0,8072.0,85.51,3008.0,10.0,2600.0,9.0,360720.0,353136.0,50.53119957,49.46880043,2308.0,8.0,8.264692038,184.0,1.0,43.5219428,14.47014524,11.72883607,12.04136408,9.973019769,5.5378115470000004,2.726880491,"68,538",9.9,547,2,"67,923",2778,9,,578.0,35.0,2498.0,10.0,2544.0,10.0,El Paso,Colorado,721.0,49.0,2589.0,10.0,2632.0,10.0,39.17264,-104.52901999999999
8043,7,46834.0,3485.54,13.44,2081.0,7.0,1266.0,5.0,27722.0,20299.0,57.72891027,42.27108973,3061.0,10.0,14.51240083,2183.0,8.0,30.207617499999998,14.24585077,12.62572624,13.902251099999999,14.50615356,9.58955457,4.922846255,"6,525",16.5,2045,7,"47,885",1252,5,,6.0,0.0,888.0,4.0,1.0,1.0,Fremont,Colorado,9.0,0.0,1045.0,4.0,1.0,1.0,38.53864,-105.38622
8045,8,64396.0,6675.61,9.65,2293.0,8.0,989.0,4.0,30533.0,29237.0,51.08415593,48.91584407,2558.0,9.0,7.821649657,129.0,1.0,39.94311528,14.48050862,13.15375606,12.92287101,11.67809938,5.36222185,2.459427807,"4,946",8.4,275,1,"74,421",2895,10,,54.0,2.0,2022.0,8.0,1990.0,8.0,Garfield,Colorado,70.0,2.0,2076.0,8.0,1910.0,8.0,39.583909999999996,-107.31363
8047,8,5399.0,393.98,13.7,349.0,2.0,1282.0,5.0,3212.0,2909.0,52.47508577,47.52491423,2851.0,10.0,8.642378697,242.0,1.0,25.1429505,11.90981866,16.4188858,19.39225617,18.49371018,6.861623917999999,1.780754779,410,6.7,97,1,"72,949",2874,10,,1.0,0.0,1.0,1.0,1.0,1.0,Gilpin,Colorado,1.0,0.0,1.0,1.0,1.0,1.0,39.86909,-105.53235
8049,9,14972.0,4843.92,3.09,1026.0,4.0,429.0,2.0,8319.0,7206.0,53.58454106,46.41545894,2932.0,10.0,10.17069243,540.0,2.0,30.86634461,13.66827697,12.41223833,15.31723027,17.56521739,7.813204509,2.3574879230000003,"1,219",7.9,217,1,"69,214",2813,10,,4.0,0.0,662.0,3.0,1.0,1.0,Grand,Colorado,4.0,0.0,572.0,3.0,1.0,1.0,39.9348,-105.88145
8051,9,16161.0,11047.65,1.46,1108.0,4.0,226.0,1.0,9300.0,7946.0,53.92554795,46.07445205,2958.0,10.0,7.752522324,120.0,1.0,42.82732228,13.88727821,12.53044184,11.4287371,11.57369825,5.73466311,2.017859214,"1,678",10.4,661,3,"61,268",2519,9,,102.0,3.0,2214.0,9.0,2157.0,9.0,Gunnison,Colorado,114.0,3.0,2243.0,9.0,2098.0,8.0,38.82131,-106.63113
8053,8,797.0,1328.33,0.6,26.0,1.0,64.0,1.0,418.0,393.0,51.54130703,48.45869297,2698.0,9.0,21.45499384,3052.0,10.0,27.1270037,8.754623921,9.494451295,14.0567201,19.11220715,16.15289766,5.302096178,69,8.6,304,1,"62,149",2562,9,,1.0,0.0,1.0,1.0,1.0,1.0,Hinsdale,Colorado,3.0,0.0,424.0,2.0,1.0,1.0,38.01367,-107.29516000000001
8055,8,6165.0,3168.04,1.95,407.0,2.0,306.0,1.0,3513.0,3376.0,50.994338799999994,49.005661200000006,2523.0,9.0,21.20772245,3044.0,10.0,25.75119756,8.883727682,9.420815793,14.39976775,20.33676876,14.03687037,7.170852083,"1,459",21.7,2688,9,"38,242",324,2,,1.0,0.0,1.0,1.0,1.0,1.0,Huerfano,Colorado,1.0,0.0,1.0,1.0,1.0,1.0,37.78545,-105.2308
8057,8,1296.0,4251.67,0.3,54.0,1.0,19.0,1.0,724.0,675.0,51.75125089,48.24874911,2742.0,9.0,14.29592566,2108.0,7.0,28.52037169,11.07934239,12.72337384,15.43959971,17.9413867,9.435310936,4.860614725,188,13.4,1367,5,"51,457",1679,6,,,,,,,,,,,,,,,,40.85615,-106.29422
8059,9,616945.0,2409.9,256.0,2994.0,10.0,2915.0,10.0,289294.0,290939.0,49.8582466,50.1417534,1759.0,6.0,10.67191973,691.0,3.0,34.7755126,14.91590447,12.90033487,14.018678699999999,12.71764963,7.058199033999999,3.613720695,"39,799",7.0,122,1,"85,550",3005,10,,713.0,25.0,2518.0,10.0,2526.0,10.0,Jefferson,Colorado,930.0,36.0,2605.0,10.0,2614.0,10.0,39.79503,-105.10587
8061,8,1418.0,4213.0,0.34,62.0,1.0,28.0,1.0,673.0,710.0,48.66232827,51.33767173,536.0,2.0,16.1966739,2600.0,9.0,35.50253073,9.544468547000001,9.689081706,14.24439624,14.82284888,8.676789588,7.519884309,188,13.8,1462,5,"44,704",889,3,,,,,,,,,,,,,,,,38.377159999999996,-103.37276
8063,8,7766.0,5299.67,1.47,544.0,2.0,228.0,1.0,3582.0,3581.0,50.00698032,49.99301968,1926.0,7.0,14.05835544,2038.0,7.0,38.47549909,12.00614268,10.12145749,12.77397738,12.56456792,8.390339243,5.668016194,900,12.6,1178,4,"48,342",1302,5,,7.0,0.0,1000.0,4.0,1.0,1.0,Kit Carson,Colorado,14.0,1.0,1289.0,5.0,1519.0,6.0,39.312290000000004,-102.44174
8065,8,7585.0,940.68,8.06,531.0,2.0,851.0,3.0,4207.0,3617.0,53.770449899999996,46.2295501,2948.0,10.0,7.847648262000001,136.0,1.0,38.16462168,15.529141099999999,13.08793456,12.67893661,12.69171779,5.393660532,2.45398773,970,12.6,1178,4,"51,802",1725,6,,4.0,0.0,662.0,3.0,1.0,1.0,Lake,Colorado,8.0,0.0,977.0,4.0,1.0,1.0,39.233909999999995,-106.31466999999999
8067,9,55498.0,5452.61,10.18,2203.0,8.0,1030.0,4.0,28411.0,27899.0,50.45462618,49.54537382,2263.0,8.0,10.46528148,624.0,3.0,34.76469544,14.17510211,12.38678743,13.52690464,14.68122891,7.313088261,3.152193216,"5,005",9.2,408,2,"66,219",2723,9,,43.0,0.0,1949.0,8.0,1.0,1.0,La Plata,Colorado,52.0,0.0,1966.0,8.0,1.0,1.0,37.33995,-107.47866
8069,9,331534.0,6294.05,52.67,2894.0,10.0,2391.0,8.0,174991.0,175527.0,49.92354173,50.07645827,1831.0,6.0,10.12615615,529.0,2.0,41.77959477,13.23641011,11.51752549,11.45818474,11.88212874,6.74516002,3.3809961260000003,"36,054",10.5,689,3,"71,306",2850,10,,180.0,9.0,2337.0,9.0,2396.0,10.0,Larimer,Colorado,231.0,12.0,2416.0,9.0,2471.0,10.0,40.34002,-105.57226999999999
8071,7,14177.0,11892.64,1.19,987.0,4.0,180.0,1.0,7572.0,6931.0,52.20988761,47.79011239,2822.0,10.0,16.45866373,2660.0,9.0,33.13797145,10.90808798,10.28752672,13.20416466,16.00358547,10.99772461,5.4609391160000005,"2,626",19.2,2435,8,"41,485",572,2,,2.0,0.0,291.0,2.0,1.0,1.0,Las Animas,Colorado,3.0,0.0,424.0,2.0,1.0,1.0,37.53092,-104.5232
8073,8,5377.0,5689.42,0.95,347.0,2.0,128.0,1.0,3277.0,2333.0,58.41354724,41.58645276,3068.0,10.0,12.8342246,1527.0,5.0,36.36363636,14.50980392,12.01426025,13.51158645,10.76648841,7.771836007,5.062388592,744,16.2,1999,7,"46,690",1102,4,,1.0,0.0,1.0,1.0,1.0,1.0,Lincoln,Colorado,3.0,0.0,424.0,2.0,1.0,1.0,39.351890000000004,-103.26141
8075,7,22969.0,6141.84,3.74,1438.0,5.0,488.0,2.0,12030.0,9498.0,55.88071349,44.11928651,3030.0,10.0,12.29561501,1309.0,5.0,37.46283909,13.8563731,11.77536232,12.54180602,12.06800446,7.227796357999999,5.067818655,"2,674",14.5,1628,6,"53,168",1861,6,,13.0,0.0,1369.0,6.0,1.0,1.0,Logan,Colorado,17.0,1.0,1397.0,6.0,1519.0,6.0,40.5082,-103.27495
8077,8,150062.0,10796.83,13.9,2673.0,9.0,1289.0,5.0,75720.0,77487.0,49.42332922,50.57667078,1238.0,4.0,12.79902354,1515.0,5.0,37.32858159,13.06206635,11.032133,12.43285228,13.34534323,8.157590711000001,4.6414328330000005,"21,463",14.4,1599,6,"51,132",1632,6,,34.0,0.0,1852.0,8.0,1.0,1.0,Mesa,Colorado,34.0,0.0,1772.0,7.0,1.0,1.0,39.072109999999995,-108.54761
8079,8,793.0,2643.33,0.3,25.0,1.0,19.0,1.0,385.0,391.0,49.61340206,50.38659794,1479.0,5.0,19.07216495,2944.0,10.0,22.68041237,10.95360825,10.05154639,15.46391753,21.77835052,13.78865979,5.283505155,72,9.3,437,2,"60,210",2442,8,,2.0,0.0,291.0,2.0,1.0,1.0,Mineral,Colorado,2.0,0.0,250.0,1.0,1.0,1.0,37.70747,-107.01535
8081,8,12967.0,5022.71,2.58,911.0,3.0,376.0,2.0,6763.0,6425.0,51.281468,48.718532,2626.0,9.0,9.789202305,455.0,2.0,39.54352442,13.20897786,11.43463755,13.26963907,12.7540188,6.634819533,3.154382772,"1,614",12.3,1098,4,"59,500",2390,8,,3.0,0.0,483.0,2.0,1.0,1.0,Moffat,Colorado,4.0,0.0,572.0,3.0,1.0,1.0,40.30272,-108.7695
8083,7,26137.0,5870.56,4.45,1545.0,5.0,548.0,2.0,12901.0,13257.0,49.31951984,50.68048016,1127.0,4.0,14.32448964,2122.0,7.0,34.24191452,11.4305375,10.70035935,13.22348803,16.07921095,9.519076382,4.805413258,"4,235",16.3,2015,7,"50,180",1513,5,,11.0,2.0,1268.0,5.0,1990.0,8.0,Montezuma,Colorado,13.0,2.0,1242.0,5.0,1910.0,8.0,37.31839,-108.76218
8085,8,41052.0,5128.99,8.0,1959.0,7.0,843.0,3.0,20815.0,21399.0,49.30828635,50.69171365,1112.0,4.0,16.07523571,2584.0,9.0,33.38939688,11.31851992,10.82342351,13.27047899,15.12294499,10.34017151,5.735064197000001,"4,854",11.6,940,4,"52,576",1807,6,,50.0,4.0,1998.0,8.0,2247.0,9.0,Montrose,Colorado,72.0,7.0,2085.0,8.0,2358.0,9.0,38.48717,-107.75846999999999
8087,8,28554.0,4133.59,6.91,1626.0,6.0,752.0,3.0,14410.0,14148.0,50.458715600000005,49.541284399999995,2266.0,8.0,10.81308215,735.0,3.0,41.74662091,13.29224736,11.18075495,12.11219273,10.8551019,6.31346733,4.499614819,"3,409",12.2,1077,4,"55,387",2076,7,,56.0,0.0,2032.0,8.0,1.0,1.0,Morgan,Colorado,147.0,2.0,2316.0,9.0,1910.0,8.0,40.37925,-104.17671999999999
8089,7,18470.0,3605.46,5.12,1230.0,4.0,602.0,2.0,9025.0,9407.0,48.96375868,51.03624132,772.0,3.0,13.98654514,2001.0,7.0,38.85091146,11.31727431,10.74761285,12.13650174,12.96115451,8.512369792000001,5.474175347,"3,722",20.8,2616,9,"40,064",462,2,,5.0,0.0,798.0,4.0,1.0,1.0,Otero,Colorado,6.0,0.0,808.0,3.0,1.0,1.0,38.10256,-103.51926999999999
8091,9,4037.0,1036.33,3.9,257.0,1.0,502.0,2.0,2446.0,2387.0,50.61038692,49.38961308,2360.0,8.0,16.3459549,2635.0,9.0,23.77405338,9.621353197000001,12.22842955,15.53900269,22.49120629,12.62156011,3.7243947860000004,361,7.5,172,1,"68,900",2804,10,,4.0,1.0,662.0,3.0,1619.0,7.0,Ouray,Colorado,5.0,1.0,704.0,3.0,1519.0,6.0,38.020109999999995,-107.63167
8093,8,16241.0,5094.21,3.19,1116.0,4.0,435.0,2.0,9768.0,8788.0,52.64065531,47.35934469,2869.0,10.0,11.06380686,807.0,3.0,24.67126536,11.0314723,12.62664367,19.51390386,21.09290795,8.945893512,2.117913343,"1,487",8.1,238,1,"72,121",2865,10,,6.0,0.0,888.0,4.0,1.0,1.0,Park,Colorado,6.0,0.0,808.0,3.0,1.0,1.0,39.316790000000005,-106.10381000000001
8095,9,3332.0,1661.7,2.01,197.0,1.0,310.0,2.0,2115.0,2171.0,49.34671022,50.65328978,1152.0,4.0,16.84554363,2713.0,9.0,36.95753616,11.03593094,9.566028931,12.36584228,13.22911806,8.189454036,8.656089593999999,458,10.8,753,3,"52,367",1784,6,,4.0,0.0,662.0,3.0,1.0,1.0,Phillips,Colorado,5.0,0.0,704.0,3.0,1.0,1.0,40.68965,-102.15394
8097,10,15295.0,1534.26,9.97,1049.0,4.0,1009.0,4.0,9289.0,8661.0,51.74930362,48.25069638,2740.0,9.0,12.12813371,1226.0,4.0,28.88579387,14.4178273,14.10027855,15.11420613,15.35376045,9.086350975,3.04178273,"1,222",6.8,106,1,"89,034",3034,10,,49.0,2.0,1987.0,8.0,1990.0,8.0,Pitkin,Colorado,57.0,2.0,1999.0,8.0,1910.0,8.0,39.15161,-106.77138000000001
8099,7,12267.0,4798.66,2.56,867.0,3.0,375.0,2.0,6113.0,6051.0,50.25485038,49.74514962,2120.0,7.0,11.86287405,1111.0,4.0,41.57349556,11.52581388,10.62150608,12.03551463,12.38079579,7.456428806,4.406445248,"2,553",21.6,2677,9,"42,455",655,3,,1.0,0.0,1.0,1.0,1.0,1.0,Prowers,Colorado,1.0,0.0,1.0,1.0,1.0,1.0,37.87498,-102.38287
8101,7,165445.0,5290.78,31.27,2718.0,9.0,2048.0,7.0,82556.0,84973.0,49.27863236,50.72136764,1075.0,4.0,12.43545894,1375.0,5.0,38.05430702,12.62527682,11.50606761,12.55185669,12.82703293,7.845805801,4.589653135,"28,127",17.2,2159,7,"48,308",1297,5,,53.0,3.0,2013.0,8.0,2157.0,9.0,Pueblo,Colorado,84.0,6.0,2140.0,8.0,2314.0,9.0,38.29455,-104.53374000000001
8103,9,6399.0,7110.0,0.9,431.0,2.0,121.0,1.0,3237.0,3099.0,51.08901515,48.91098485,2559.0,9.0,10.51136364,641.0,3.0,38.92045455,13.82575758,10.66919192,13.36805556,12.70517677,6.628787879,3.882575758,653,10.8,753,3,"63,411",2615,9,,1.0,0.0,1.0,1.0,1.0,1.0,Rio Blanco,Colorado,1.0,0.0,1.0,1.0,1.0,1.0,40.080420000000004,-107.76296
8105,7,11234.0,3030.25,3.71,796.0,3.0,487.0,2.0,5624.0,5626.0,49.99111111,50.00888889,1909.0,7.0,13.46666667,1790.0,6.0,36.71111111,12.26666667,10.56888889,12.64,14.34666667,8.871111111,4.595555556,"1,604",14.5,1628,6,"44,171",826,3,,5.0,0.0,798.0,4.0,1.0,1.0,Rio Grande,Colorado,7.0,0.0,898.0,4.0,1.0,1.0,37.70748,-106.42884
8107,9,24971.0,5940.67,4.2,1498.0,5.0,521.0,2.0,13399.0,12334.0,52.06932732,47.93067268,2799.0,10.0,9.038977189,299.0,1.0,33.5017293,14.84863794,14.23464035,14.07531186,14.30070338,6.699568647,2.3394085419999997,"1,783",7.0,122,1,"81,033",2971,10,,35.0,1.0,1867.0,8.0,1619.0,7.0,Routt,Colorado,49.0,2.0,1940.0,8.0,1910.0,8.0,40.86099,-106.96085
8109,7,6719.0,6417.48,1.05,459.0,2.0,153.0,1.0,3426.0,3417.0,50.06576063,49.93423937,1980.0,7.0,13.45900921,1786.0,6.0,31.74046471,9.776413854,10.50708753,14.89112962,19.62589508,10.31711238,3.141896829,"1,679",24.6,2870,10,"36,869",225,1,,3.0,0.0,483.0,2.0,1.0,1.0,Saguache,Colorado,3.0,0.0,424.0,2.0,1.0,1.0,37.817040000000006,-106.06908999999999
8111,8,516.0,645.0,0.8,12.0,1.0,104.0,1.0,427.0,335.0,56.03674541,43.96325459,3035.0,10.0,15.87926509,2552.0,9.0,24.40944882,12.72965879,13.91076115,14.82939633,18.24146982,11.94225722,3.937007874,109,14.4,1599,6,"46,878",1125,4,,,,,,,,,,,,,,,,37.78202,-107.63083
8113,9,8073.0,4429.01,1.82,566.0,2.0,288.0,1.0,4359.0,3832.0,53.21694543,46.78305457,2906.0,10.0,7.850079355,137.0,1.0,31.37590038,15.23623489,15.83445245,15.21181785,14.49151508,6.31180564,1.538273715,702,8.6,304,1,"69,458",2817,10,,12.0,0.0,1319.0,6.0,1.0,1.0,San Miguel,Colorado,13.0,0.0,1242.0,5.0,1.0,1.0,37.91688,-108.72802
8115,8,2350.0,1306.0,1.8,128.0,1.0,284.0,1.0,1137.0,1166.0,49.37038645,50.62961355,1182.0,4.0,18.97524968,2938.0,10.0,31.17672601,11.11593574,9.986973512999999,11.98436822,16.76074685,10.6817195,8.293530178,338,14.9,1712,6,"40,009",459,2,,,,,,,,,,,,,,,,40.879690000000004,-102.18504
8117,9,30429.0,1750.65,17.38,1682.0,6.0,1500.0,5.0,16816.0,14191.0,54.23291515,45.76708485,2970.0,10.0,7.746637856,118.0,1.0,34.0245751,17.33479537,14.61605444,13.40987519,12.86806205,6.31792821,1.428709646,"2,056",6.7,97,1,"80,078",2959,10,,68.0,0.0,2095.0,9.0,1.0,1.0,Summit,Colorado,86.0,1.0,2150.0,8.0,1519.0,6.0,39.47099,-106.0169
8119,8,24540.0,1559.16,15.74,1485.0,5.0,1414.0,5.0,12734.0,12349.0,50.76745206,49.23254794,2444.0,8.0,12.48654467,1390.0,5.0,27.68807559,10.08651278,11.46991987,17.95239804,20.31654906,9.739664314,2.7468803569999998,"1,851",7.4,163,1,"64,850",2671,9,,12.0,2.0,1319.0,6.0,1990.0,8.0,Teller,Colorado,18.0,2.0,1431.0,6.0,1910.0,8.0,38.76765,-105.0998
8121,8,4558.0,5419.99,0.84,286.0,1.0,114.0,1.0,2552.0,2357.0,51.98614789,48.01385211,2781.0,9.0,13.95396211,1989.0,7.0,35.95436953,11.9372581,10.59278876,13.11876146,14.44286005,8.046445305,5.907516806,646,13.7,1437,5,"47,869",1251,5,,2.0,0.0,291.0,2.0,1.0,1.0,Washington,Colorado,6.0,0.0,808.0,3.0,1.0,1.0,40.08208,-103.21276
8123,8,293517.0,11430.73,25.68,2866.0,10.0,1886.0,7.0,158475.0,155830.0,50.42076963,49.57923037,2236.0,8.0,7.720844402999999,116.0,1.0,42.87968693,14.98512591,12.73762746,11.76595982,9.910755476,5.218497956,2.502346447,"32,314",10.5,689,3,"75,629",2910,10,,683.0,44.0,2510.0,10.0,2560.0,10.0,Weld,Colorado,1029.0,61.0,2614.0,10.0,2642.0,10.0,40.06592,-104.95832
8125,9,9844.0,5709.62,1.72,690.0,3.0,272.0,1.0,4989.0,5031.0,49.79041916,50.20958084,1676.0,6.0,13.15369262,1652.0,6.0,40.27944112,12.25548902,11.02794411,11.76646707,11.51696607,8.133732535,5.01996008,"1,191",12.1,1055,4,"53,253",1867,7,,2.0,0.0,291.0,2.0,1.0,1.0,Yuma,Colorado,2.0,0.0,250.0,1.0,1.0,1.0,40.06044,-102.5039
